<?xml version="1.0" encoding="UTF-8"?>
<kml xmlns="http://www.opengis.net/kml/2.2">
<Document>
<Placemark>
<name>Hougang Avenue 10 Block 512</name>
<ExtendedData>
	<Data name="PostalCode">
		<value>530512</value>
	</Data>
	<Data name="Friendliness">
		<value>2</value>
	</Data>
</ExtendedData>
<Point>
<coordinates>103.888845156917,1.37119814170758</coordinates>
</Point>
</Placemark>
<Placemark>
<name>NKF Hougang  Punggol Dialysis Centre</name>
<ExtendedData>
	<Data name="PostalCode">
		<value>530628</value>
	</Data>
	<Data name="Friendliness">
		<value>2</value>
	</Data>
</ExtendedData>
<Point>
<coordinates>103.880777447084,1.36947955898797</coordinates>
</Point>
</Placemark>
<Placemark>
<name>PCF Aljunied Hougang Education Centre</name>
<ExtendedData>
	<Data name="PostalCode">
		<value>530632</value>
	</Data>
	<Data name="Friendliness">
		<value>1</value>
	</Data>
</ExtendedData>
<Point>
<coordinates>103.880771922111,1.37068426596471</coordinates>
</Point>
</Placemark>
<Placemark>
<name>Ci Yuan Community Centre CC</name>
<ExtendedData>
	<Data name="PostalCode">
		<value>530662</value>
	</Data>
	<Data name="Friendliness">
		<value>1</value>
	</Data>
</ExtendedData>
<Point>
<coordinates>103.882548792529,1.37444711365725</coordinates>
</Point>
</Placemark>
<Placemark>
<name>Hougang HDB Branch Office</name>
<ExtendedData>
	<Data name="PostalCode">
		<value>530814</value>
	</Data>
	<Data name="Friendliness">
		<value>1</value>
	</Data>
</ExtendedData>
<Point>
<coordinates>103.893206623656,1.37221202669175</coordinates>
</Point>
</Placemark>
<Placemark>
<name>Scorpio East Building</name>
<ExtendedData>
	<Data name="PostalCode">
		<value>534104</value>
	</Data>
	<Data name="Friendliness">
		<value>2</value>
	</Data>
</ExtendedData>
<Point>
<coordinates>103.889773503508,1.33764961909935</coordinates>
</Point>
</Placemark>
<Placemark>
<name>Sakae Building</name>
<ExtendedData>
	<Data name="PostalCode">
		<value>534106</value>
	</Data>
	<Data name="Friendliness">
		<value>3</value>
	</Data>
</ExtendedData>
<Point>
<coordinates>103.889423123891,1.33489987466829</coordinates>
</Point>
</Placemark>
<Placemark>
<name>Natural Cool Lifestyle Hub</name>
<ExtendedData>
	<Data name="PostalCode">
		<value>534119</value>
	</Data>
	<Data name="Friendliness">
		<value>2</value>
	</Data>
</ExtendedData>
<Point>
<coordinates>103.88925237304,1.33772781518963</coordinates>
</Point>
</Placemark>
<Placemark>
<name>Marvell Asia Headquarters</name>
<ExtendedData>
	<Data name="PostalCode">
		<value>534158</value>
	</Data>
	<Data name="Friendliness">
		<value>2</value>
	</Data>
</ExtendedData>
<Point>
<coordinates>103.890745630392,1.33630746856797</coordinates>
</Point>
</Placemark>
<Placemark>
<name>Sunlove Home</name>
<ExtendedData>
	<Data name="PostalCode">
		<value>534190</value>
	</Data>
	<Data name="Friendliness">
		<value>3</value>
	</Data>
</ExtendedData>
<Point>
<coordinates>103.885233805302,1.38053184438298</coordinates>
</Point>
</Placemark>
<Placemark>
<name>Silra Home</name>
<ExtendedData>
	<Data name="PostalCode">
		<value>534191</value>
	</Data>
	<Data name="Friendliness">
		<value>3</value>
	</Data>
</ExtendedData>
<Point>
<coordinates>103.884933562215,1.38037151538947</coordinates>
</Point>
</Placemark>
<Placemark>
<name>Air Force Museum</name>
<ExtendedData>
	<Data name="PostalCode">
		<value>534234</value>
	</Data>
	<Data name="Friendliness">
		<value>3</value>
	</Data>
</ExtendedData>
<Point>
<coordinates>103.899731602819,1.34515585626905</coordinates>
</Point>
</Placemark>
<Placemark>
<name>Tangerine Grove</name>
<ExtendedData>
	<Data name="PostalCode">
		<value>534239</value>
	</Data>
	<Data name="Friendliness">
		<value>2</value>
	</Data>
</ExtendedData>
<Point>
<coordinates>103.880579102191,1.35025695680056</coordinates>
</Point>
</Placemark>
<Placemark>
<name>Hougang Sheng Hong Family Service Centre</name>
<ExtendedData>
	<Data name="PostalCode">
		<value>530237</value>
	</Data>
	<Data name="Friendliness">
		<value>2</value>
	</Data>
</ExtendedData>
<Point>
<coordinates>103.888673049554,1.35649973616486</coordinates>
</Point>
</Placemark>
<Placemark>
<name>Hougang Secondary School</name>
<ExtendedData>
	<Data name="PostalCode">
		<value>534256</value>
	</Data>
	<Data name="Friendliness">
		<value>1</value>
	</Data>
</ExtendedData>
<Point>
<coordinates>103.88253363885,1.3776405260166</coordinates>
</Point>
</Placemark>
<Placemark>
<name>Glad Tidings Church</name>
<ExtendedData>
	<Data name="PostalCode">
		<value>534449</value>
	</Data>
	<Data name="Friendliness">
		<value>2</value>
	</Data>
</ExtendedData>
<Point>
<coordinates>103.887630079466,1.36203832990506</coordinates>
</Point>
</Placemark>
<Placemark>
<name>Changi Airport Terminal 2 Land Side</name>
<ExtendedData>
	<Data name="PostalCode">
		<value>819643</value>
	</Data>
	<Data name="Friendliness">
		<value>4</value>
	</Data>
</ExtendedData>
<Point>
<coordinates>103.989140626645,1.35550488371291</coordinates>
</Point>
</Placemark>
<Placemark>
<name>Changi Airport MRT Station CG2</name>
<ExtendedData>
	<Data name="PostalCode">
		<value>819661</value>
	</Data>
	<Data name="Friendliness">
		<value>3</value>
	</Data>
</ExtendedData>
<Point>
<coordinates>103.988408993103,1.35734893311408</coordinates>
</Point>
</Placemark>
<Placemark>
<name>Changi Airport Terminal 3 Land Side</name>
<ExtendedData>
	<Data name="PostalCode">
		<value>819663</value>
	</Data>
	<Data name="Friendliness">
		<value>5</value>
	</Data>
</ExtendedData>
<Point>
<coordinates>103.98651428224,1.35671644587599</coordinates>
</Point>
</Placemark>
<Placemark>
<name>Crowne Plaza Changi Airport</name>
<ExtendedData>
	<Data name="PostalCode">
		<value>819664</value>
	</Data>
	<Data name="Friendliness">
		<value>3</value>
	</Data>
</ExtendedData>
<Point>
<coordinates>103.9879642802,1.35870663562556</coordinates>
</Point>
</Placemark>
<Placemark>
<name>Edgefield Plains</name>
<ExtendedData>
	<Data name="PostalCode">
		<value>820101</value>
	</Data>
	<Data name="Friendliness">
		<value>3</value>
	</Data>
</ExtendedData>
<Point>
<coordinates>103.905807781526,1.39848200590049</coordinates>
</Point>
</Placemark>
<Placemark>
<name>Keming Primary School</name>
<ExtendedData>
	<Data name="PostalCode">
		<value>659762</value>
	</Data>
	<Data name="Friendliness">
		<value>3</value>
	</Data>
</ExtendedData>
<Point>
<coordinates>103.755922899177,1.34506383362485</coordinates>
</Point>
</Placemark>
<Placemark>
<name>Bukit Batok East Community Club CC</name>
<ExtendedData>
	<Data name="PostalCode">
		<value>659841</value>
	</Data>
	<Data name="Friendliness">
		<value>2</value>
	</Data>
</ExtendedData>
<Point>
<coordinates>103.758334286286,1.34886901234356</coordinates>
</Point>
</Placemark>
<Placemark>
<name>Church of Saint Mary of the Angels</name>
<ExtendedData>
	<Data name="PostalCode">
		<value>659918</value>
	</Data>
	<Data name="Friendliness">
		<value>2</value>
	</Data>
</ExtendedData>
<Point>
<coordinates>103.759403774764,1.34724714676481</coordinates>
</Point>
</Placemark>
<Placemark>
<name>Masjid ArRaudhah</name>
<ExtendedData>
	<Data name="PostalCode">
		<value>659919</value>
	</Data>
	<Data name="Friendliness">
		<value>2</value>
	</Data>
</ExtendedData>
<Point>
<coordinates>103.756003392463,1.35166244033784</coordinates>
</Point>
</Placemark>
<Placemark>
<name>Bukit Batok MRT Station NS2</name>
<ExtendedData>
	<Data name="PostalCode">
		<value>659958</value>
	</Data>
	<Data name="Friendliness">
		<value>3</value>
	</Data>
</ExtendedData>
<Point>
<coordinates>103.749555499147,1.3489923678292</coordinates>
</Point>
</Placemark>
<Placemark>
<name>Hillington Green</name>
<ExtendedData>
	<Data name="PostalCode">
		<value>669565</value>
	</Data>
	<Data name="Friendliness">
		<value>2</value>
	</Data>
</ExtendedData>
<Point>
<coordinates>103.765032598041,1.35859939164792</coordinates>
</Point>
</Placemark>
<Placemark>
<name>Hillview 128</name>
<ExtendedData>
	<Data name="PostalCode">
		<value>669595</value>
	</Data>
	<Data name="Friendliness">
		<value>2</value>
	</Data>
</ExtendedData>
<Point>
<coordinates>103.760850246857,1.35722729240284</coordinates>
</Point>
</Placemark>
<Placemark>
<name>New Creation Church  NKF Dialysis Centre</name>
<ExtendedData>
	<Data name="PostalCode">
		<value>670274</value>
	</Data>
	<Data name="Friendliness">
		<value>2</value>
	</Data>
</ExtendedData>
<Point>
<coordinates>103.774821996846,1.37716123027305</coordinates>
</Point>
</Placemark>
<Placemark>
<name>Fajar Shopping Centre</name>
<ExtendedData>
	<Data name="PostalCode">
		<value>670446</value>
	</Data>
	<Data name="Friendliness">
		<value>2</value>
	</Data>
</ExtendedData>
<Point>
<coordinates>103.771029153996,1.3840059121597</coordinates>
</Point>
</Placemark>
<Placemark>
<name>Fragrance Hotel Kovan</name>
<ExtendedData>
	<Data name="PostalCode">
		<value>534629</value>
	</Data>
	<Data name="Friendliness">
		<value>2</value>
	</Data>
</ExtendedData>
<Point>
<coordinates>103.878732777272,1.35406430913936</coordinates>
</Point>
</Placemark>
<Placemark>
<name>Bethesda Serangoon Church</name>
<ExtendedData>
	<Data name="PostalCode">
		<value>534652</value>
	</Data>
	<Data name="Friendliness">
		<value>1</value>
	</Data>
</ExtendedData>
<Point>
<coordinates>103.879205198081,1.35529398848822</coordinates>
</Point>
</Placemark>
<Placemark>
<name>Serangoon Junior College</name>
<ExtendedData>
	<Data name="PostalCode">
		<value>534768</value>
	</Data>
	<Data name="Friendliness">
		<value>2</value>
	</Data>
</ExtendedData>
<Point>
<coordinates>103.88697314179,1.36517368403724</coordinates>
</Point>
</Placemark>
<Placemark>
<name>Hougang Plaza</name>
<ExtendedData>
	<Data name="PostalCode">
		<value>534785</value>
	</Data>
	<Data name="Friendliness">
		<value>1</value>
	</Data>
</ExtendedData>
<Point>
<coordinates>103.894991122279,1.3703168434303</coordinates>
</Point>
</Placemark>
<Placemark>
<name>Holy Innocents High School</name>
<ExtendedData>
	<Data name="PostalCode">
		<value>534786</value>
	</Data>
	<Data name="Friendliness">
		<value>1</value>
	</Data>
</ExtendedData>
<Point>
<coordinates>103.89602628123,1.37121539762761</coordinates>
</Point>
</Placemark>
<Placemark>
<name>CHIJ Our Lady Of The Nativity</name>
<ExtendedData>
	<Data name="PostalCode">
		<value>534793</value>
	</Data>
	<Data name="Friendliness">
		<value>3</value>
	</Data>
</ExtendedData>
<Point>
<coordinates>103.89753035901,1.37278297612636</coordinates>
</Point>
</Placemark>
<Placemark>
<name>Church of The Nativity of The Blessed Virgin Mary</name>
<ExtendedData>
	<Data name="PostalCode">
		<value>534795</value>
	</Data>
	<Data name="Friendliness">
		<value>2</value>
	</Data>
</ExtendedData>
<Point>
<coordinates>103.898217413777,1.37362626393458</coordinates>
</Point>
</Placemark>
<Placemark>
<name>The Yardley</name>
<ExtendedData>
	<Data name="PostalCode">
		<value>534798</value>
	</Data>
	<Data name="Friendliness">
		<value>1</value>
	</Data>
</ExtendedData>
<Point>
<coordinates>103.87173706702,1.34770899132747</coordinates>
</Point>
</Placemark>
<Placemark>
<name>Kovan MRT Station NE13</name>
<ExtendedData>
	<Data name="PostalCode">
		<value>534799</value>
	</Data>
	<Data name="Friendliness">
		<value>3</value>
	</Data>
</ExtendedData>
<Point>
<coordinates>103.885003197653,1.36017967766355</coordinates>
</Point>
</Placemark>
<Placemark>
<name>Serangoon MRT Station NEL12CC13</name>
<ExtendedData>
	<Data name="PostalCode">
		<value>534801</value>
	</Data>
	<Data name="Friendliness">
		<value>4</value>
	</Data>
</ExtendedData>
<Point>
<coordinates>103.87353656616,1.34969791406187</coordinates>
</Point>
</Placemark>
<Placemark>
<name>Kebun Baru Mall</name>
<ExtendedData>
	<Data name="PostalCode">
		<value>566226</value>
	</Data>
	<Data name="Friendliness">
		<value>2</value>
	</Data>
</ExtendedData>
<Point>
<coordinates>103.839565704949,1.36664933414942</coordinates>
</Point>
</Placemark>
<Placemark>
<name>Grandeur 8</name>
<ExtendedData>
	<Data name="PostalCode">
		<value>567749</value>
	</Data>
	<Data name="Friendliness">
		<value>2</value>
	</Data>
</ExtendedData>
<Point>
<coordinates>103.84666769624,1.37652186881109</coordinates>
</Point>
</Placemark>
<Placemark>
<name>PCF Sparkletots Kebun Baru</name>
<ExtendedData>
	<Data name="PostalCode">
		<value>560180</value>
	</Data>
	<Data name="Friendliness">
		<value>2</value>
	</Data>
</ExtendedData>
<Point>
<coordinates>103.838353144484,1.3766768547779</coordinates>
</Point>
</Placemark>
<Placemark>
<name>Ang Mo Kio Tech II</name>
<ExtendedData>
	<Data name="PostalCode">
		<value>567760</value>
	</Data>
	<Data name="Friendliness">
		<value>1</value>
	</Data>
</ExtendedData>
<Point>
<coordinates>103.870460321023,1.37805038321582</coordinates>
</Point>
</Placemark>
<Placemark>
<name>Ang Mo Kio AMK TechLink</name>
<ExtendedData>
	<Data name="PostalCode">
		<value>567761</value>
	</Data>
	<Data name="Friendliness">
		<value>2</value>
	</Data>
</ExtendedData>
<Point>
<coordinates>103.870619232465,1.37693032133711</coordinates>
</Point>
</Placemark>
<Placemark>
<name>Hotel 81 Kovan</name>
<ExtendedData>
	<Data name="PostalCode">
		<value>534636</value>
	</Data>
	<Data name="Friendliness">
		<value>1</value>
	</Data>
</ExtendedData>
<Point>
<coordinates>103.878886620952,1.35418717766613</coordinates>
</Point>
</Placemark>
<Placemark>
<name>The Grassroots Club</name>
<ExtendedData>
	<Data name="PostalCode">
		<value>568046</value>
	</Data>
	<Data name="Friendliness">
		<value>1</value>
	</Data>
</ExtendedData>
<Point>
<coordinates>103.846565861394,1.38066574209625</coordinates>
</Point>
</Placemark>
<Placemark>
<name>Bukit Gombak Stadium</name>
<ExtendedData>
	<Data name="PostalCode">
		<value>659081</value>
	</Data>
	<Data name="Friendliness">
		<value>3</value>
	</Data>
</ExtendedData>
<Point>
<coordinates>103.753205121937,1.35774817377348</coordinates>
</Point>
</Placemark>
<Placemark>
<name>Bukit Gombak MRT Station NS3</name>
<ExtendedData>
	<Data name="PostalCode">
		<value>659083</value>
	</Data>
	<Data name="Friendliness">
		<value>3</value>
	</Data>
</ExtendedData>
<Point>
<coordinates>103.751879661134,1.35861226385872</coordinates>
</Point>
</Placemark>
<Placemark>
<name>ZuLin Temple</name>
<ExtendedData>
	<Data name="PostalCode">
		<value>659086</value>
	</Data>
	<Data name="Friendliness">
		<value>2</value>
	</Data>
</ExtendedData>
<Point>
<coordinates>103.749515852481,1.36775204674034</coordinates>
</Point>
</Placemark>
<Placemark>
<name>Bukit Gombak Sports Hall</name>
<ExtendedData>
	<Data name="PostalCode">
		<value>659088</value>
	</Data>
	<Data name="Friendliness">
		<value>2</value>
	</Data>
</ExtendedData>
<Point>
<coordinates>103.752285168871,1.35975636699105</coordinates>
</Point>
</Placemark>
<Placemark>
<name>Grace Assembly of God II</name>
<ExtendedData>
	<Data name="PostalCode">
		<value>659125</value>
	</Data>
	<Data name="Friendliness">
		<value>4</value>
	</Data>
</ExtendedData>
<Point>
<coordinates>103.747512942201,1.36486467270134</coordinates>
</Point>
</Placemark>
<Placemark>
<name>Princess Elizabeth Primary School</name>
<ExtendedData>
	<Data name="PostalCode">
		<value>659163</value>
	</Data>
	<Data name="Friendliness">
		<value>2</value>
	</Data>
</ExtendedData>
<Point>
<coordinates>103.740999299982,1.34919485067586</coordinates>
</Point>
</Placemark>
<Placemark>
<name>Bukit Batok Polyclinic NHG</name>
<ExtendedData>
	<Data name="PostalCode">
		<value>659164</value>
	</Data>
	<Data name="Friendliness">
		<value>4</value>
	</Data>
</ExtendedData>
<Point>
<coordinates>103.74780835476,1.3520239761229</coordinates>
</Point>
</Placemark>
<Placemark>
<name>Eden School Autism Association</name>
<ExtendedData>
	<Data name="PostalCode">
		<value>659168</value>
	</Data>
	<Data name="Friendliness">
		<value>2</value>
	</Data>
</ExtendedData>
<Point>
<coordinates>103.742955823901,1.35139758010652</coordinates>
</Point>
</Placemark>
<Placemark>
<name>Jurong East Sports Complex</name>
<ExtendedData>
	<Data name="PostalCode">
		<value>609517</value>
	</Data>
	<Data name="Friendliness">
		<value>3</value>
	</Data>
</ExtendedData>
<Point>
<coordinates>103.729427333511,1.34660234207073</coordinates>
</Point>
</Placemark>
<Placemark>
<name>International Merchandise Mart IMM Building Retail</name>
<ExtendedData>
	<Data name="PostalCode">
		<value>609601</value>
	</Data>
	<Data name="Friendliness">
		<value>5</value>
	</Data>
</ExtendedData>
<Point>
<coordinates>103.74687680773,1.3349179200305</coordinates>
</Point>
</Placemark>
<Placemark>
<name>Yuhua Primary School</name>
<ExtendedData>
	<Data name="PostalCode">
		<value>609558</value>
	</Data>
	<Data name="Friendliness">
		<value>2</value>
	</Data>
</ExtendedData>
<Point>
<coordinates>103.740886903643,1.34291338501114</coordinates>
</Point>
</Placemark>
<Placemark>
<name>Masjid AlMukminin</name>
<ExtendedData>
	<Data name="PostalCode">
		<value>609603</value>
	</Data>
	<Data name="Friendliness">
		<value>2</value>
	</Data>
</ExtendedData>
<Point>
<coordinates>103.741458601704,1.33921265607785</coordinates>
</Point>
</Placemark>
<Placemark>
<name>Shuqun Secondary School</name>
<ExtendedData>
	<Data name="PostalCode">
		<value>609604</value>
	</Data>
	<Data name="Friendliness">
		<value>2</value>
	</Data>
</ExtendedData>
<Point>
<coordinates>103.739894124526,1.34015638287426</coordinates>
</Point>
</Placemark>
<Placemark>
<name>Arulmigu Murugan Temple</name>
<ExtendedData>
	<Data name="PostalCode">
		<value>609605</value>
	</Data>
	<Data name="Friendliness">
		<value>1</value>
	</Data>
</ExtendedData>
<Point>
<coordinates>103.738685119321,1.34150359957813</coordinates>
</Point>
</Placemark>
<Placemark>
<name>Fuhua Primary School</name>
<ExtendedData>
	<Data name="PostalCode">
		<value>609647</value>
	</Data>
	<Data name="Friendliness">
		<value>2</value>
	</Data>
</ExtendedData>
<Point>
<coordinates>103.73666912955,1.33640409549958</coordinates>
</Point>
</Placemark>
<Placemark>
<name>Jurong SeventhDay Adventist Church</name>
<ExtendedData>
	<Data name="PostalCode">
		<value>609648</value>
	</Data>
	<Data name="Friendliness">
		<value>2</value>
	</Data>
</ExtendedData>
<Point>
<coordinates>103.738416012443,1.33569087644725</coordinates>
</Point>
</Placemark>
<Placemark>
<name>Jurong East MRT Station EW24</name>
<ExtendedData>
	<Data name="PostalCode">
		<value>609690</value>
	</Data>
	<Data name="Friendliness">
		<value>3</value>
	</Data>
</ExtendedData>
<Point>
<coordinates>103.742289432132,1.33287973882896</coordinates>
</Point>
</Placemark>
<Placemark>
<name>Jcube</name>
<ExtendedData>
	<Data name="PostalCode">
		<value>609731</value>
	</Data>
	<Data name="Friendliness">
		<value>5</value>
	</Data>
</ExtendedData>
<Point>
<coordinates>103.740302101315,1.33330667100999</coordinates>
</Point>
</Placemark>
<Placemark>
<name>Jurong Regional Library</name>
<ExtendedData>
	<Data name="PostalCode">
		<value>609732</value>
	</Data>
	<Data name="Friendliness">
		<value>3</value>
	</Data>
</ExtendedData>
<Point>
<coordinates>103.739492442347,1.33288065149308</coordinates>
</Point>
</Placemark>
<Placemark>
<name>Parc Oasis</name>
<ExtendedData>
	<Data name="PostalCode">
		<value>609774</value>
	</Data>
	<Data name="Friendliness">
		<value>3</value>
	</Data>
</ExtendedData>
<Point>
<coordinates>103.73400767676,1.3437778075946</coordinates>
</Point>
</Placemark>
<Placemark>
<name>Jurong Polyclinic NHG</name>
<ExtendedData>
	<Data name="PostalCode">
		<value>609788</value>
	</Data>
	<Data name="Friendliness">
		<value>4</value>
	</Data>
</ExtendedData>
<Point>
<coordinates>103.730704951875,1.3497263774073</coordinates>
</Point>
</Placemark>
<Placemark>
<name>Jurongville Secondary School</name>
<ExtendedData>
	<Data name="PostalCode">
		<value>609790</value>
	</Data>
	<Data name="Friendliness">
		<value>3</value>
	</Data>
</ExtendedData>
<Point>
<coordinates>103.729112360912,1.35154989107854</coordinates>
</Point>
</Placemark>
<Placemark>
<name>Chong Pang Food Centre</name>
<ExtendedData>
	<Data name="PostalCode">
		<value>760105</value>
	</Data>
	<Data name="Friendliness">
		<value>2</value>
	</Data>
</ExtendedData>
<Point>
<coordinates>103.828205034101,1.43186076170928</coordinates>
</Point>
</Placemark>
<Placemark>
<name>Northpoint Shopping Centre</name>
<ExtendedData>
	<Data name="PostalCode">
		<value>769098</value>
	</Data>
	<Data name="Friendliness">
		<value>5</value>
	</Data>
</ExtendedData>
<Point>
<coordinates>103.836522629546,1.42931449365528</coordinates>
</Point>
</Placemark>
<Placemark>
<name>Masjid Darul Makmur</name>
<ExtendedData>
	<Data name="PostalCode">
		<value>769099</value>
	</Data>
	<Data name="Friendliness">
		<value>2</value>
	</Data>
</ExtendedData>
<Point>
<coordinates>103.834347972114,1.43665178996918</coordinates>
</Point>
</Placemark>
<Placemark>
<name>Yishun Sports Hall</name>
<ExtendedData>
	<Data name="PostalCode">
		<value>769130</value>
	</Data>
	<Data name="Friendliness">
		<value>2</value>
	</Data>
</ExtendedData>
<Point>
<coordinates>103.831218893415,1.41185593802145</coordinates>
</Point>
</Placemark>
<Placemark>
<name>Yishun Stadium</name>
<ExtendedData>
	<Data name="PostalCode">
		<value>769131</value>
	</Data>
	<Data name="Friendliness">
		<value>1</value>
	</Data>
</ExtendedData>
<Point>
<coordinates>103.83186524325,1.41275622199241</coordinates>
</Point>
</Placemark>
<Placemark>
<name>Singapore Orchid Country Club</name>
<ExtendedData>
	<Data name="PostalCode">
		<value>769162</value>
	</Data>
	<Data name="Friendliness">
		<value>3</value>
	</Data>
</ExtendedData>
<Point>
<coordinates>103.844214154459,1.4111039094201</coordinates>
</Point>
</Placemark>
<Placemark>
<name>D Banyan</name>
<ExtendedData>
	<Data name="PostalCode">
		<value>769468</value>
	</Data>
	<Data name="Friendliness">
		<value>1</value>
	</Data>
</ExtendedData>
<Point>
<coordinates>103.825472251136,1.44408899621781</coordinates>
</Point>
</Placemark>
<Placemark>
<name>Forest Hills Condominium</name>
<ExtendedData>
	<Data name="PostalCode">
		<value>778903</value>
	</Data>
	<Data name="Friendliness">
		<value>2</value>
	</Data>
</ExtendedData>
<Point>
<coordinates>103.817705051576,1.40466127292952</coordinates>
</Point>
</Placemark>
<Placemark>
<name>Mandai Crematorium and Columbarium</name>
<ExtendedData>
	<Data name="PostalCode">
		<value>779393</value>
	</Data>
	<Data name="Friendliness">
		<value>5</value>
	</Data>
</ExtendedData>
<Point>
<coordinates>103.809667790416,1.41375396995893</coordinates>
</Point>
</Placemark>
<Placemark>
<name>The Lentor Residence</name>
<ExtendedData>
	<Data name="PostalCode">
		<value>786876</value>
	</Data>
	<Data name="Friendliness">
		<value>2</value>
	</Data>
</ExtendedData>
<Point>
<coordinates>103.837241396818,1.39149234072852</coordinates>
</Point>
</Placemark>
<Placemark>
<name>Seasons Park</name>
<ExtendedData>
	<Data name="PostalCode">
		<value>787078</value>
	</Data>
	<Data name="Friendliness">
		<value>1</value>
	</Data>
</ExtendedData>
<Point>
<coordinates>103.839735327884,1.38553420342338</coordinates>
</Point>
</Placemark>
<Placemark>
<name>Bullion Park Condominium</name>
<ExtendedData>
	<Data name="PostalCode">
		<value>789100</value>
	</Data>
	<Data name="Friendliness">
		<value>2</value>
	</Data>
</ExtendedData>
<Point>
<coordinates>103.836724747566,1.39158698233371</coordinates>
</Point>
</Placemark>
<Placemark>
<name>Fernvale Lane</name>
<ExtendedData>
	<Data name="PostalCode">
		<value>790403</value>
	</Data>
	<Data name="Friendliness">
		<value>2</value>
	</Data>
</ExtendedData>
<Point>
<coordinates>103.873023468344,1.38862124311996</coordinates>
</Point>
</Placemark>
<Placemark>
<name>Fernvale Grove</name>
<ExtendedData>
	<Data name="PostalCode">
		<value>790436</value>
	</Data>
	<Data name="Friendliness">
		<value>3</value>
	</Data>
</ExtendedData>
<Point>
<coordinates>103.876633219492,1.39253905818153</coordinates>
</Point>
</Placemark>
<Placemark>
<name>Fernvale Vista</name>
<ExtendedData>
	<Data name="PostalCode">
		<value>793441</value>
	</Data>
	<Data name="Friendliness">
		<value>3</value>
	</Data>
</ExtendedData>
<Point>
<coordinates>103.874864066737,1.39204445653143</coordinates>
</Point>
</Placemark>
<Placemark>
<name>Hong Kah Primary School</name>
<ExtendedData>
	<Data name="PostalCode">
		<value>659203</value>
	</Data>
	<Data name="Friendliness">
		<value>3</value>
	</Data>
</ExtendedData>
<Point>
<coordinates>103.743738280218,1.36302469131713</coordinates>
</Point>
</Placemark>
<Placemark>
<name>Bukit Batok Home for the Aged</name>
<ExtendedData>
	<Data name="PostalCode">
		<value>659205</value>
	</Data>
	<Data name="Friendliness">
		<value>2</value>
	</Data>
</ExtendedData>
<Point>
<coordinates>103.74375366608,1.36218134876298</coordinates>
</Point>
</Placemark>
<Placemark>
<name>Civil Service Club  Bukit Batok</name>
<ExtendedData>
	<Data name="PostalCode">
		<value>659206</value>
	</Data>
	<Data name="Friendliness">
		<value>4</value>
	</Data>
</ExtendedData>
<Point>
<coordinates>103.749375569751,1.35261995693639</coordinates>
</Point>
</Placemark>
<Placemark>
<name>Hillgrove Secondary School</name>
<ExtendedData>
	<Data name="PostalCode">
		<value>659250</value>
	</Data>
	<Data name="Friendliness">
		<value>3</value>
	</Data>
</ExtendedData>
<Point>
<coordinates>103.753052067268,1.35273582799465</coordinates>
</Point>
</Placemark>
<Placemark>
<name>Saint Anthonys Primary School</name>
<ExtendedData>
	<Data name="PostalCode">
		<value>659321</value>
	</Data>
	<Data name="Friendliness">
		<value>2</value>
	</Data>
</ExtendedData>
<Point>
<coordinates>103.749251594776,1.36411709551072</coordinates>
</Point>
</Placemark>
<Placemark>
<name>Swiss Cottage Secondary School</name>
<ExtendedData>
	<Data name="PostalCode">
		<value>659322</value>
	</Data>
	<Data name="Friendliness">
		<value>2</value>
	</Data>
</ExtendedData>
<Point>
<coordinates>103.750673343651,1.36433423931668</coordinates>
</Point>
</Placemark>
<Placemark>
<name>Hong Kah North Community Centre CC</name>
<ExtendedData>
	<Data name="PostalCode">
		<value>659440</value>
	</Data>
	<Data name="Friendliness">
		<value>2</value>
	</Data>
</ExtendedData>
<Point>
<coordinates>103.749481054021,1.35903989181836</coordinates>
</Point>
</Placemark>
<Placemark>
<name>Hock Thong Temple</name>
<ExtendedData>
	<Data name="PostalCode">
		<value>659522</value>
	</Data>
	<Data name="Friendliness">
		<value>1</value>
	</Data>
</ExtendedData>
<Point>
<coordinates>103.757092499338,1.34028485392754</coordinates>
</Point>
</Placemark>
<Placemark>
<name>Midview Building</name>
<ExtendedData>
	<Data name="PostalCode">
		<value>659578</value>
	</Data>
	<Data name="Friendliness">
		<value>2</value>
	</Data>
</ExtendedData>
<Point>
<coordinates>103.757090220443,1.33930145147416</coordinates>
</Point>
</Placemark>
<Placemark>
<name>Bukit Batok Swimming Complex</name>
<ExtendedData>
	<Data name="PostalCode">
		<value>659581</value>
	</Data>
	<Data name="Friendliness">
		<value>3</value>
	</Data>
</ExtendedData>
<Point>
<coordinates>103.748152583818,1.34448789516169</coordinates>
</Point>
</Placemark>
<Placemark>
<name>Bukit View Secondary School</name>
<ExtendedData>
	<Data name="PostalCode">
		<value>659633</value>
	</Data>
	<Data name="Friendliness">
		<value>2</value>
	</Data>
</ExtendedData>
<Point>
<coordinates>103.752275345585,1.34540820914476</coordinates>
</Point>
</Placemark>
<Placemark>
<name>Bukit View Primary School</name>
<ExtendedData>
	<Data name="PostalCode">
		<value>659634</value>
	</Data>
	<Data name="Friendliness">
		<value>2</value>
	</Data>
</ExtendedData>
<Point>
<coordinates>103.753303241489,1.34625502965979</coordinates>
</Point>
</Placemark>
<Placemark>
<name>The Dew</name>
<ExtendedData>
	<Data name="PostalCode">
		<value>659636</value>
	</Data>
	<Data name="Friendliness">
		<value>3</value>
	</Data>
</ExtendedData>
<Point>
<coordinates>103.755920138621,1.3466938522255</coordinates>
</Point>
</Placemark>
<Placemark>
<name>Bukit Batok Presbyterian Church</name>
<ExtendedData>
	<Data name="PostalCode">
		<value>659673</value>
	</Data>
	<Data name="Friendliness">
		<value>3</value>
	</Data>
</ExtendedData>
<Point>
<coordinates>103.743115583215,1.34934202526274</coordinates>
</Point>
</Placemark>
<Placemark>
<name>Blue Cross Thong Kheng Home</name>
<ExtendedData>
	<Data name="PostalCode">
		<value>609791</value>
	</Data>
	<Data name="Friendliness">
		<value>2</value>
	</Data>
</ExtendedData>
<Point>
<coordinates>103.728978778097,1.34956669880738</coordinates>
</Point>
</Placemark>
<Placemark>
<name>The Synergy</name>
<ExtendedData>
	<Data name="PostalCode">
		<value>609917</value>
	</Data>
	<Data name="Friendliness">
		<value>2</value>
	</Data>
</ExtendedData>
<Point>
<coordinates>103.748690351836,1.32904307855365</coordinates>
</Point>
</Placemark>
<Placemark>
<name>Creative Technology Centre Pte Ltd</name>
<ExtendedData>
	<Data name="PostalCode">
		<value>609921</value>
	</Data>
	<Data name="Friendliness">
		<value>1</value>
	</Data>
</ExtendedData>
<Point>
<coordinates>103.745789830039,1.3286589885787</coordinates>
</Point>
</Placemark>
<Placemark>
<name>ACER Building</name>
<ExtendedData>
	<Data name="PostalCode">
		<value>609923</value>
	</Data>
	<Data name="Friendliness">
		<value>2</value>
	</Data>
</ExtendedData>
<Point>
<coordinates>103.746247636939,1.32696941318792</coordinates>
</Point>
</Placemark>
<Placemark>
<name>IQuestIBP</name>
<ExtendedData>
	<Data name="PostalCode">
		<value>609924</value>
	</Data>
	<Data name="Friendliness">
		<value>3</value>
	</Data>
</ExtendedData>
<Point>
<coordinates>103.746994526199,1.32570420413846</coordinates>
</Point>
</Placemark>
<Placemark>
<name>HiP Building</name>
<ExtendedData>
	<Data name="PostalCode">
		<value>609926</value>
	</Data>
	<Data name="Friendliness">
		<value>2</value>
	</Data>
</ExtendedData>
<Point>
<coordinates>103.750486534039,1.32407953537483</coordinates>
</Point>
</Placemark>
<Placemark>
<name>Nordic European Centre</name>
<ExtendedData>
	<Data name="PostalCode">
		<value>609927</value>
	</Data>
	<Data name="Friendliness">
		<value>3</value>
	</Data>
</ExtendedData>
<Point>
<coordinates>103.74835515483,1.32702518036928</coordinates>
</Point>
</Placemark>
<Placemark>
<name>M1 Limited</name>
<ExtendedData>
	<Data name="PostalCode">
		<value>609928</value>
	</Data>
	<Data name="Friendliness">
		<value>3</value>
	</Data>
</ExtendedData>
<Point>
<coordinates>103.748972143415,1.32521173097941</coordinates>
</Point>
</Placemark>
<Placemark>
<name>The Strategy</name>
<ExtendedData>
	<Data name="PostalCode">
		<value>609930</value>
	</Data>
	<Data name="Friendliness">
		<value>2</value>
	</Data>
</ExtendedData>
<Point>
<coordinates>103.747155654478,1.33009699666646</coordinates>
</Point>
</Placemark>
<Placemark>
<name>1A International Business Park</name>
<ExtendedData>
	<Data name="PostalCode">
		<value>609933</value>
	</Data>
	<Data name="Friendliness">
		<value>3</value>
	</Data>
</ExtendedData>
<Point>
<coordinates>103.748337245277,1.32803915674247</coordinates>
</Point>
</Placemark>
<Placemark>
<name>Yuhua Community Club CC</name>
<ExtendedData>
	<Data name="PostalCode">
		<value>609958</value>
	</Data>
	<Data name="Friendliness">
		<value>2</value>
	</Data>
</ExtendedData>
<Point>
<coordinates>103.737115507263,1.33995884579957</coordinates>
</Point>
</Placemark>
<Placemark>
<name>Chinese Garden MRT Station EW25</name>
<ExtendedData>
	<Data name="PostalCode">
		<value>609959</value>
	</Data>
	<Data name="Friendliness">
		<value>3</value>
	</Data>
</ExtendedData>
<Point>
<coordinates>103.732766277189,1.3422452806746</coordinates>
</Point>
</Placemark>
<Placemark>
<name>8  Tradehub 21</name>
<ExtendedData>
	<Data name="PostalCode">
		<value>609964</value>
	</Data>
	<Data name="Friendliness">
		<value>3</value>
	</Data>
</ExtendedData>
<Point>
<coordinates>103.753558593779,1.32745680135532</coordinates>
</Point>
</Placemark>
<Placemark>
<name>Lakeside Primary School</name>
<ExtendedData>
	<Data name="PostalCode">
		<value>618310</value>
	</Data>
	<Data name="Friendliness">
		<value>1</value>
	</Data>
</ExtendedData>
<Point>
<coordinates>103.718050213361,1.33837603587988</coordinates>
</Point>
</Placemark>
<Placemark>
<name>Fernvale Gardens School MINDS</name>
<ExtendedData>
	<Data name="PostalCode">
		<value>797635</value>
	</Data>
	<Data name="Friendliness">
		<value>3</value>
	</Data>
</ExtendedData>
<Point>
<coordinates>103.875021962281,1.38984454607168</coordinates>
</Point>
</Placemark>
<Placemark>
<name>Fernvale Point</name>
<ExtendedData>
	<Data name="PostalCode">
		<value>797650</value>
	</Data>
	<Data name="Friendliness">
		<value>2</value>
	</Data>
</ExtendedData>
<Point>
<coordinates>103.876837337181,1.3917144509151</coordinates>
</Point>
</Placemark>
<Placemark>
<name>Fernvale LRT Station SW5</name>
<ExtendedData>
	<Data name="PostalCode">
		<value>797698</value>
	</Data>
	<Data name="Friendliness">
		<value>3</value>
	</Data>
</ExtendedData>
<Point>
<coordinates>103.876299935208,1.39191200554833</coordinates>
</Point>
</Placemark>
<Placemark>
<name>Thanggam LRT Station SW4</name>
<ExtendedData>
	<Data name="PostalCode">
		<value>797699</value>
	</Data>
	<Data name="Friendliness">
		<value>3</value>
	</Data>
</ExtendedData>
<Point>
<coordinates>103.875634575124,1.39731868819728</coordinates>
</Point>
</Placemark>
<Placemark>
<name>Layar LRT Station SW6</name>
<ExtendedData>
	<Data name="PostalCode">
		<value>797700</value>
	</Data>
	<Data name="Friendliness">
		<value>3</value>
	</Data>
</ExtendedData>
<Point>
<coordinates>103.880029181663,1.39208040905076</coordinates>
</Point>
</Placemark>
<Placemark>
<name>Pei Hwa Secondary School</name>
<ExtendedData>
	<Data name="PostalCode">
		<value>797702</value>
	</Data>
	<Data name="Friendliness">
		<value>1</value>
	</Data>
</ExtendedData>
<Point>
<coordinates>103.878566401234,1.3904824838128</coordinates>
</Point>
</Placemark>
<Placemark>
<name>Ju Eng Home for the Senior Citizens</name>
<ExtendedData>
	<Data name="PostalCode">
		<value>799436</value>
	</Data>
	<Data name="Friendliness">
		<value>3</value>
	</Data>
</ExtendedData>
<Point>
<coordinates>103.872086945155,1.39418424627689</coordinates>
</Point>
</Placemark>
<Placemark>
<name>Econ Medicare Centre Yio Chu Kang</name>
<ExtendedData>
	<Data name="PostalCode">
		<value>805947</value>
	</Data>
	<Data name="Friendliness">
		<value>3</value>
	</Data>
</ExtendedData>
<Point>
<coordinates>103.853529503079,1.39056601635413</coordinates>
</Point>
</Placemark>
<Placemark>
<name>Changi Airport Terminal 1 Land Side</name>
<ExtendedData>
	<Data name="PostalCode">
		<value>819642</value>
	</Data>
	<Data name="Friendliness">
		<value>5</value>
	</Data>
</ExtendedData>
<Point>
<coordinates>103.990998295104,1.36177036515102</coordinates>
</Point>
</Placemark>
<Placemark>
<name>Pasir Ris Secondary School</name>
<ExtendedData>
	<Data name="PostalCode">
		<value>529400</value>
	</Data>
	<Data name="Friendliness">
		<value>2</value>
	</Data>
</ExtendedData>
<Point>
<coordinates>103.948614347407,1.3546398979903</coordinates>
</Point>
</Placemark>
<Placemark>
<name>Tampines Chinese Temple</name>
<ExtendedData>
	<Data name="PostalCode">
		<value>529394</value>
	</Data>
	<Data name="Friendliness">
		<value>2</value>
	</Data>
</ExtendedData>
<Point>
<coordinates>103.949603847116,1.35581771477775</coordinates>
</Point>
</Placemark>
<Placemark>
<name>Tampines Primary School</name>
<ExtendedData>
	<Data name="PostalCode">
		<value>529426</value>
	</Data>
	<Data name="Friendliness">
		<value>5</value>
	</Data>
</ExtendedData>
<Point>
<coordinates>103.944004360802,1.34977904164115</coordinates>
</Point>
</Placemark>
<Placemark>
<name>Tampines Secondary School</name>
<ExtendedData>
	<Data name="PostalCode">
		<value>529427</value>
	</Data>
	<Data name="Friendliness">
		<value>4</value>
	</Data>
</ExtendedData>
<Point>
<coordinates>103.944262172425,1.34930351770369</coordinates>
</Point>
</Placemark>
<Placemark>
<name>Church of the Holy Trinity</name>
<ExtendedData>
	<Data name="PostalCode">
		<value>529455</value>
	</Data>
	<Data name="Friendliness">
		<value>2</value>
	</Data>
</ExtendedData>
<Point>
<coordinates>103.949334927269,1.34884178610989</coordinates>
</Point>
</Placemark>
<Placemark>
<name>NTUC Income Tampines Point</name>
<ExtendedData>
	<Data name="PostalCode">
		<value>529483</value>
	</Data>
	<Data name="Friendliness">
		<value>1</value>
	</Data>
</ExtendedData>
<Point>
<coordinates>103.942498737649,1.35277465897911</coordinates>
</Point>
</Placemark>
<Placemark>
<name>Century Square</name>
<ExtendedData>
	<Data name="PostalCode">
		<value>529509</value>
	</Data>
	<Data name="Friendliness">
		<value>2</value>
	</Data>
</ExtendedData>
<Point>
<coordinates>103.943866397057,1.35233398120822</coordinates>
</Point>
</Placemark>
<Placemark>
<name>Tampines Mall</name>
<ExtendedData>
	<Data name="PostalCode">
		<value>529510</value>
	</Data>
	<Data name="Friendliness">
		<value>3</value>
	</Data>
</ExtendedData>
<Point>
<coordinates>103.944695906102,1.35258058446774</coordinates>
</Point>
</Placemark>
<Placemark>
<name>Tampines 1</name>
<ExtendedData>
	<Data name="PostalCode">
		<value>529536</value>
	</Data>
	<Data name="Friendliness">
		<value>4</value>
	</Data>
</ExtendedData>
<Point>
<coordinates>103.945019130043,1.35431589771557</coordinates>
</Point>
</Placemark>
<Placemark>
<name>Tampines MRT Station EW2</name>
<ExtendedData>
	<Data name="PostalCode">
		<value>529538</value>
	</Data>
	<Data name="Friendliness">
		<value>3</value>
	</Data>
</ExtendedData>
<Point>
<coordinates>103.94513863175,1.35331614817236</coordinates>
</Point>
</Placemark>
<Placemark>
<name>Lighthouse Evangelism Tampines</name>
<ExtendedData>
	<Data name="PostalCode">
		<value>528985</value>
	</Data>
	<Data name="Friendliness">
		<value>2</value>
	</Data>
</ExtendedData>
<Point>
<coordinates>103.935316458548,1.34982932572417</coordinates>
</Point>
</Placemark>
<Placemark>
<name>Tampines Changkat Community Club CC</name>
<ExtendedData>
	<Data name="PostalCode">
		<value>529453</value>
	</Data>
	<Data name="Friendliness">
		<value>2</value>
	</Data>
</ExtendedData>
<Point>
<coordinates>103.947687503122,1.34581368221965</coordinates>
</Point>
</Placemark>
<Placemark>
<name>Abacus Plaza</name>
<ExtendedData>
	<Data name="PostalCode">
		<value>529540</value>
	</Data>
	<Data name="Friendliness">
		<value>3</value>
	</Data>
</ExtendedData>
<Point>
<coordinates>103.942894225922,1.35270364042709</coordinates>
</Point>
</Placemark>
<Placemark>
<name>Tampines Plaza</name>
<ExtendedData>
	<Data name="PostalCode">
		<value>529541</value>
	</Data>
	<Data name="Friendliness">
		<value>3</value>
	</Data>
</ExtendedData>
<Point>
<coordinates>103.942687998736,1.35316670793762</coordinates>
</Point>
</Placemark>
<Placemark>
<name>OCBC Centre One Tampines</name>
<ExtendedData>
	<Data name="PostalCode">
		<value>529542</value>
	</Data>
	<Data name="Friendliness">
		<value>1</value>
	</Data>
</ExtendedData>
<Point>
<coordinates>103.942204273979,1.35452128528716</coordinates>
</Point>
</Placemark>
<Placemark>
<name>Tampines Junior College</name>
<ExtendedData>
	<Data name="PostalCode">
		<value>529564</value>
	</Data>
	<Data name="Friendliness">
		<value>2</value>
	</Data>
</ExtendedData>
<Point>
<coordinates>103.9561856115,1.35728050572493</coordinates>
</Point>
</Placemark>
<Placemark>
<name>Centro Bianco</name>
<ExtendedData>
	<Data name="PostalCode">
		<value>534818</value>
	</Data>
	<Data name="Friendliness">
		<value>2</value>
	</Data>
</ExtendedData>
<Point>
<coordinates>103.886936923149,1.33675805964902</coordinates>
</Point>
</Placemark>
<Placemark>
<name>Paya Lebar Chinese Methodist Church</name>
<ExtendedData>
	<Data name="PostalCode">
		<value>534932</value>
	</Data>
	<Data name="Friendliness">
		<value>2</value>
	</Data>
</ExtendedData>
<Point>
<coordinates>103.882026984551,1.34397810153846</coordinates>
</Point>
</Placemark>
<Placemark>
<name>Bethany Independent Presbyterian Church</name>
<ExtendedData>
	<Data name="PostalCode">
		<value>534934</value>
	</Data>
	<Data name="Friendliness">
		<value>4</value>
	</Data>
</ExtendedData>
<Point>
<coordinates>103.881861317943,1.34425592100273</coordinates>
</Point>
</Placemark>
<Placemark>
<name>Bayou Residence</name>
<ExtendedData>
	<Data name="PostalCode">
		<value>534957</value>
	</Data>
	<Data name="Friendliness">
		<value>2</value>
	</Data>
</ExtendedData>
<Point>
<coordinates>103.880246183402,1.34620073545299</coordinates>
</Point>
</Placemark>
<Placemark>
<name>Bethany Presbyterian Church</name>
<ExtendedData>
	<Data name="PostalCode">
		<value>534965</value>
	</Data>
	<Data name="Friendliness">
		<value>2</value>
	</Data>
</ExtendedData>
<Point>
<coordinates>103.880813348714,1.34841259019461</coordinates>
</Point>
</Placemark>
<Placemark>
<name>Singapore Islamic Hub</name>
<ExtendedData>
	<Data name="PostalCode">
		<value>579702</value>
	</Data>
	<Data name="Friendliness">
		<value>5</value>
	</Data>
</ExtendedData>
<Point>
<coordinates>103.852359055961,1.34287162942346</coordinates>
</Point>
</Placemark>
<Placemark>
<name>Masjid Muhajirin</name>
<ExtendedData>
	<Data name="PostalCode">
		<value>579704</value>
	</Data>
	<Data name="Friendliness">
		<value>3</value>
	</Data>
</ExtendedData>
<Point>
<coordinates>103.852052757405,1.3429906886687</coordinates>
</Point>
</Placemark>
<Placemark>
<name>Whitley Secondary School</name>
<ExtendedData>
	<Data name="PostalCode">
		<value>579747</value>
	</Data>
	<Data name="Friendliness">
		<value>2</value>
	</Data>
</ExtendedData>
<Point>
<coordinates>103.842850821609,1.35492986927287</coordinates>
</Point>
</Placemark>
<Placemark>
<name>Bishan Neighbourhood Police Centre</name>
<ExtendedData>
	<Data name="PostalCode">
		<value>579757</value>
	</Data>
	<Data name="Friendliness">
		<value>2</value>
	</Data>
</ExtendedData>
<Point>
<coordinates>103.847714934387,1.357802385786</coordinates>
</Point>
</Placemark>
<Placemark>
<name>Catholic High School</name>
<ExtendedData>
	<Data name="PostalCode">
		<value>579767</value>
	</Data>
	<Data name="Friendliness">
		<value>3</value>
	</Data>
</ExtendedData>
<Point>
<coordinates>103.844874352679,1.35472340669554</coordinates>
</Point>
</Placemark>
<Placemark>
<name>The Salvation Army Command Headquarter Singapore Centre Corps</name>
<ExtendedData>
	<Data name="PostalCode">
		<value>579768</value>
	</Data>
	<Data name="Friendliness">
		<value>3</value>
	</Data>
</ExtendedData>
<Point>
<coordinates>103.842508669831,1.36092543826709</coordinates>
</Point>
</Placemark>
<Placemark>
<name>Bishan Swimming Complex</name>
<ExtendedData>
	<Data name="PostalCode">
		<value>579779</value>
	</Data>
	<Data name="Friendliness">
		<value>2</value>
	</Data>
</ExtendedData>
<Point>
<coordinates>103.850037176202,1.35424356590141</coordinates>
</Point>
</Placemark>
<Placemark>
<name>MRT Sport and Recreation Club</name>
<ExtendedData>
	<Data name="PostalCode">
		<value>579780</value>
	</Data>
	<Data name="Friendliness">
		<value>2</value>
	</Data>
</ExtendedData>
<Point>
<coordinates>103.85015840333,1.3548931121003</coordinates>
</Point>
</Placemark>
<Placemark>
<name>Institute of Technical Education College Central Bishan Campus</name>
<ExtendedData>
	<Data name="PostalCode">
		<value>579781</value>
	</Data>
	<Data name="Friendliness">
		<value>2</value>
	</Data>
</ExtendedData>
<Point>
<coordinates>103.853058480645,1.35132283594748</coordinates>
</Point>
</Placemark>
<Placemark>
<name>Malay Language Center</name>
<ExtendedData>
	<Data name="PostalCode">
		<value>579782</value>
	</Data>
	<Data name="Friendliness">
		<value>3</value>
	</Data>
</ExtendedData>
<Point>
<coordinates>103.852274152075,1.3534763671171</coordinates>
</Point>
</Placemark>
<Placemark>
<name>Bishan Sports Hall and Stadium</name>
<ExtendedData>
	<Data name="PostalCode">
		<value>579783</value>
	</Data>
	<Data name="Friendliness">
		<value>3</value>
	</Data>
</ExtendedData>
<Point>
<coordinates>103.851048424441,1.35549468978863</coordinates>
</Point>
</Placemark>
<Placemark>
<name>Guide House</name>
<ExtendedData>
	<Data name="PostalCode">
		<value>579785</value>
	</Data>
	<Data name="Friendliness">
		<value>3</value>
	</Data>
</ExtendedData>
<Point>
<coordinates>103.850823044448,1.35359788305471</coordinates>
</Point>
</Placemark>
<Placemark>
<name>Masjid AnNahdhah</name>
<ExtendedData>
	<Data name="PostalCode">
		<value>579786</value>
	</Data>
	<Data name="Friendliness">
		<value>3</value>
	</Data>
</ExtendedData>
<Point>
<coordinates>103.851310954585,1.35354383736294</coordinates>
</Point>
</Placemark>
<Placemark>
<name>Zion Bible Presbyterian Church</name>
<ExtendedData>
	<Data name="PostalCode">
		<value>579792</value>
	</Data>
	<Data name="Friendliness">
		<value>2</value>
	</Data>
</ExtendedData>
<Point>
<coordinates>103.854929417468,1.34705566524529</coordinates>
</Point>
</Placemark>
<Placemark>
<name>AmTech Building</name>
<ExtendedData>
	<Data name="PostalCode">
		<value>575624</value>
	</Data>
	<Data name="Friendliness">
		<value>2</value>
	</Data>
</ExtendedData>
<Point>
<coordinates>103.837493172455,1.35630327124934</coordinates>
</Point>
</Placemark>
<Placemark>
<name>Living Praise Presbyterian Church</name>
<ExtendedData>
	<Data name="PostalCode">
		<value>579794</value>
	</Data>
	<Data name="Friendliness">
		<value>1</value>
	</Data>
</ExtendedData>
<Point>
<coordinates>103.854510174142,1.34940021734386</coordinates>
</Point>
</Placemark>
<Placemark>
<name>Bishan Home For The Intellectually Disabled</name>
<ExtendedData>
	<Data name="PostalCode">
		<value>579798</value>
	</Data>
	<Data name="Friendliness">
		<value>2</value>
	</Data>
</ExtendedData>
<Point>
<coordinates>103.855024303155,1.34759157626559</coordinates>
</Point>
</Placemark>
<Placemark>
<name>Bishan Community Club CC</name>
<ExtendedData>
	<Data name="PostalCode">
		<value>579799</value>
	</Data>
	<Data name="Friendliness">
		<value>3</value>
	</Data>
</ExtendedData>
<Point>
<coordinates>103.85073849241,1.34958275722176</coordinates>
</Point>
</Placemark>
<Placemark>
<name>Rafflesia Condominium</name>
<ExtendedData>
	<Data name="PostalCode">
		<value>579800</value>
	</Data>
	<Data name="Friendliness">
		<value>2</value>
	</Data>
</ExtendedData>
<Point>
<coordinates>103.843310818169,1.34802038584277</coordinates>
</Point>
</Placemark>
<Placemark>
<name>Guangyang Primary School</name>
<ExtendedData>
	<Data name="PostalCode">
		<value>579806</value>
	</Data>
	<Data name="Friendliness">
		<value>4</value>
	</Data>
</ExtendedData>
<Point>
<coordinates>103.849284435662,1.34604299810628</coordinates>
</Point>
</Placemark>
<Placemark>
<name>Guangyang Secondary School</name>
<ExtendedData>
	<Data name="PostalCode">
		<value>579807</value>
	</Data>
	<Data name="Friendliness">
		<value>2</value>
	</Data>
</ExtendedData>
<Point>
<coordinates>103.850208609357,1.34440889213644</coordinates>
</Point>
</Placemark>
<Placemark>
<name>Singapore Scouts Association</name>
<ExtendedData>
	<Data name="PostalCode">
		<value>579808</value>
	</Data>
	<Data name="Friendliness">
		<value>2</value>
	</Data>
</ExtendedData>
<Point>
<coordinates>103.850117691413,1.34759936928118</coordinates>
</Point>
</Placemark>
<Placemark>
<name>Bishan Loft</name>
<ExtendedData>
	<Data name="PostalCode">
		<value>579819</value>
	</Data>
	<Data name="Friendliness">
		<value>2</value>
	</Data>
</ExtendedData>
<Point>
<coordinates>103.852145679856,1.34763407744091</coordinates>
</Point>
</Placemark>
<Placemark>
<name>Bishan MRT Station CC15</name>
<ExtendedData>
	<Data name="PostalCode">
		<value>579827</value>
	</Data>
	<Data name="Friendliness">
		<value>3</value>
	</Data>
</ExtendedData>
<Point>
<coordinates>103.848126037637,1.35089927506855</coordinates>
</Point>
</Placemark>
<Placemark>
<name>Tampines North Primary School</name>
<ExtendedData>
	<Data name="PostalCode">
		<value>529565</value>
	</Data>
	<Data name="Friendliness">
		<value>3</value>
	</Data>
</ExtendedData>
<Point>
<coordinates>103.948725457365,1.36047674795182</coordinates>
</Point>
</Placemark>
<Placemark>
<name>SpringField Secondary School</name>
<ExtendedData>
	<Data name="PostalCode">
		<value>529593</value>
	</Data>
	<Data name="Friendliness">
		<value>1</value>
	</Data>
</ExtendedData>
<Point>
<coordinates>103.929989814638,1.34938806891966</coordinates>
</Point>
</Placemark>
<Placemark>
<name>Tampines Regional Library</name>
<ExtendedData>
	<Data name="PostalCode">
		<value>529620</value>
	</Data>
	<Data name="Friendliness">
		<value>2</value>
	</Data>
</ExtendedData>
<Point>
<coordinates>103.944524440909,1.35631234373318</coordinates>
</Point>
</Placemark>
<Placemark>
<name>Sunplaza Park</name>
<ExtendedData>
	<Data name="PostalCode">
		<value>529621</value>
	</Data>
	<Data name="Friendliness">
		<value>1</value>
	</Data>
</ExtendedData>
<Point>
<coordinates>103.943910504247,1.35707914318194</coordinates>
</Point>
</Placemark>
<Placemark>
<name>Tampines Swimming Complex</name>
<ExtendedData>
	<Data name="PostalCode">
		<value>529652</value>
	</Data>
	<Data name="Friendliness">
		<value>3</value>
	</Data>
</ExtendedData>
<Point>
<coordinates>103.93988120402,1.3546969893169</coordinates>
</Point>
</Placemark>
<Placemark>
<name>OCBC Centre Two Tampines</name>
<ExtendedData>
	<Data name="PostalCode">
		<value>529680</value>
	</Data>
	<Data name="Friendliness">
		<value>1</value>
	</Data>
</ExtendedData>
<Point>
<coordinates>103.942361300735,1.3521505490744</coordinates>
</Point>
</Placemark>
<Placemark>
<name>Kheng Chiu Happy Lodge</name>
<ExtendedData>
	<Data name="PostalCode">
		<value>529681</value>
	</Data>
	<Data name="Friendliness">
		<value>4</value>
	</Data>
</ExtendedData>
<Point>
<coordinates>103.946663444252,1.35632326083762</coordinates>
</Point>
</Placemark>
<Placemark>
<name>Tampines West Community Centre CC</name>
<ExtendedData>
	<Data name="PostalCode">
		<value>529705</value>
	</Data>
	<Data name="Friendliness">
		<value>2</value>
	</Data>
</ExtendedData>
<Point>
<coordinates>103.935706776856,1.3487391321936</coordinates>
</Point>
</Placemark>
<Placemark>
<name>Chapel of Christ the Redeemer</name>
<ExtendedData>
	<Data name="PostalCode">
		<value>529706</value>
	</Data>
	<Data name="Friendliness">
		<value>1</value>
	</Data>
</ExtendedData>
<Point>
<coordinates>103.936766383912,1.34915371763276</coordinates>
</Point>
</Placemark>
<Placemark>
<name>Jamiyah Home for the Aged Darul Takrim</name>
<ExtendedData>
	<Data name="PostalCode">
		<value>529707</value>
	</Data>
	<Data name="Friendliness">
		<value>1</value>
	</Data>
</ExtendedData>
<Point>
<coordinates>103.937632899496,1.3483877899057</coordinates>
</Point>
</Placemark>
<Placemark>
<name>Temasek Polytechnic</name>
<ExtendedData>
	<Data name="PostalCode">
		<value>529757</value>
	</Data>
	<Data name="Friendliness">
		<value>2</value>
	</Data>
</ExtendedData>
<Point>
<coordinates>103.93397140535,1.34439787979675</coordinates>
</Point>
</Placemark>
<Placemark>
<name>Changi General Hospital</name>
<ExtendedData>
	<Data name="PostalCode">
		<value>529889</value>
	</Data>
	<Data name="Friendliness">
		<value>4</value>
	</Data>
</ExtendedData>
<Point>
<coordinates>103.949632759092,1.34053171769784</coordinates>
</Point>
</Placemark>
<Placemark>
<name>East Point Green</name>
<ExtendedData>
	<Data name="PostalCode">
		<value>529891</value>
	</Data>
	<Data name="Friendliness">
		<value>2</value>
	</Data>
</ExtendedData>
<Point>
<coordinates>103.951513552506,1.338972845133</coordinates>
</Point>
</Placemark>
<Placemark>
<name>Changkat Changi Secondary School</name>
<ExtendedData>
	<Data name="PostalCode">
		<value>529894</value>
	</Data>
	<Data name="Friendliness">
		<value>3</value>
	</Data>
</ExtendedData>
<Point>
<coordinates>103.952840195591,1.33923203131243</coordinates>
</Point>
</Placemark>
<Placemark>
<name>Saint Andrews Community Hospital</name>
<ExtendedData>
	<Data name="PostalCode">
		<value>529895</value>
	</Data>
	<Data name="Friendliness">
		<value>2</value>
	</Data>
</ExtendedData>
<Point>
<coordinates>103.948801392493,1.34165587645338</coordinates>
</Point>
</Placemark>
<Placemark>
<name>Simei Care Centre</name>
<ExtendedData>
	<Data name="PostalCode">
		<value>529897</value>
	</Data>
	<Data name="Friendliness">
		<value>2</value>
	</Data>
</ExtendedData>
<Point>
<coordinates>103.949142632091,1.34210520907915</coordinates>
</Point>
</Placemark>
<Placemark>
<name>My Saviours Church</name>
<ExtendedData>
	<Data name="PostalCode">
		<value>159011</value>
	</Data>
	<Data name="Friendliness">
		<value>3</value>
	</Data>
</ExtendedData>
<Point>
<coordinates>103.82373744383,1.29220290391523</coordinates>
</Point>
</Placemark>
<Placemark>
<name>Tanglin View</name>
<ExtendedData>
	<Data name="PostalCode">
		<value>159012</value>
	</Data>
	<Data name="Friendliness">
		<value>4</value>
	</Data>
</ExtendedData>
<Point>
<coordinates>103.818366690095,1.2918293136152</coordinates>
</Point>
</Placemark>
<Placemark>
<name>Corrupt Practices Investigation Bureau</name>
<ExtendedData>
	<Data name="PostalCode">
		<value>159047</value>
	</Data>
	<Data name="Friendliness">
		<value>3</value>
	</Data>
</ExtendedData>
<Point>
<coordinates>103.810584854252,1.28651276067357</coordinates>
</Point>
</Placemark>
<Placemark>
<name>Leng Kee Community Centre CC</name>
<ExtendedData>
	<Data name="PostalCode">
		<value>159049</value>
	</Data>
	<Data name="Friendliness">
		<value>2</value>
	</Data>
</ExtendedData>
<Point>
<coordinates>103.814448019317,1.28978745406002</coordinates>
</Point>
</Placemark>
<Placemark>
<name>Bukit Merah Secondary School</name>
<ExtendedData>
	<Data name="PostalCode">
		<value>159050</value>
	</Data>
	<Data name="Friendliness">
		<value>2</value>
	</Data>
</ExtendedData>
<Point>
<coordinates>103.813443393691,1.28558437641714</coordinates>
</Point>
</Placemark>
<Placemark>
<name>Pacific Healthcare Nursing Home</name>
<ExtendedData>
	<Data name="PostalCode">
		<value>159051</value>
	</Data>
	<Data name="Friendliness">
		<value>4</value>
	</Data>
</ExtendedData>
<Point>
<coordinates>103.810908635134,1.28640888097854</coordinates>
</Point>
</Placemark>
<Placemark>
<name>Bukit Merah Polyclinic</name>
<ExtendedData>
	<Data name="PostalCode">
		<value>150163</value>
	</Data>
	<Data name="Friendliness">
		<value>2</value>
	</Data>
</ExtendedData>
<Point>
<coordinates>103.816992081219,1.28369297145155</coordinates>
</Point>
</Placemark>
<Placemark>
<name>Redhill Forum</name>
<ExtendedData>
	<Data name="PostalCode">
		<value>159308</value>
	</Data>
	<Data name="Friendliness">
		<value>2</value>
	</Data>
</ExtendedData>
<Point>
<coordinates>103.811275660527,1.28415267660214</coordinates>
</Point>
</Placemark>
<Placemark>
<name>Petro Centre</name>
<ExtendedData>
	<Data name="PostalCode">
		<value>159349</value>
	</Data>
	<Data name="Friendliness">
		<value>3</value>
	</Data>
</ExtendedData>
<Point>
<coordinates>103.808511429795,1.28454134981163</coordinates>
</Point>
</Placemark>
<Placemark>
<name>Dadlani Industrial House</name>
<ExtendedData>
	<Data name="PostalCode">
		<value>159406</value>
	</Data>
	<Data name="Friendliness">
		<value>1</value>
	</Data>
</ExtendedData>
<Point>
<coordinates>103.810056205099,1.28564395881249</coordinates>
</Point>
</Placemark>
<Placemark>
<name>Mova Building</name>
<ExtendedData>
	<Data name="PostalCode">
		<value>159419</value>
	</Data>
	<Data name="Friendliness">
		<value>2</value>
	</Data>
</ExtendedData>
<Point>
<coordinates>103.808507177418,1.28580167077923</coordinates>
</Point>
</Placemark>
<Placemark>
<name>Bukit Merah Public Library</name>
<ExtendedData>
	<Data name="PostalCode">
		<value>159462</value>
	</Data>
	<Data name="Friendliness">
		<value>4</value>
	</Data>
</ExtendedData>
<Point>
<coordinates>103.81556341452,1.28422543200408</coordinates>
</Point>
</Placemark>
<Placemark>
<name>Bukit Merah Community Centre CC</name>
<ExtendedData>
	<Data name="PostalCode">
		<value>159465</value>
	</Data>
	<Data name="Friendliness">
		<value>3</value>
	</Data>
</ExtendedData>
<Point>
<coordinates>103.815828216071,1.28525460377728</coordinates>
</Point>
</Placemark>
<Placemark>
<name>Varsity Park Condominium</name>
<ExtendedData>
	<Data name="PostalCode">
		<value>127335</value>
	</Data>
	<Data name="Friendliness">
		<value>3</value>
	</Data>
</ExtendedData>
<Point>
<coordinates>103.76841630268,1.29420275643972</coordinates>
</Point>
</Placemark>
<Placemark>
<name>Waseda Shibuya Senior High School</name>
<ExtendedData>
	<Data name="PostalCode">
		<value>127366</value>
	</Data>
	<Data name="Friendliness">
		<value>1</value>
	</Data>
</ExtendedData>
<Point>
<coordinates>103.766619550622,1.29639309413241</coordinates>
</Point>
</Placemark>
<Placemark>
<name>Kent Ridge Secondary School</name>
<ExtendedData>
	<Data name="PostalCode">
		<value>127368</value>
	</Data>
	<Data name="Friendliness">
		<value>3</value>
	</Data>
</ExtendedData>
<Point>
<coordinates>103.764927189209,1.30135321933699</coordinates>
</Point>
</Placemark>
<Placemark>
<name>Clementi Bible Centre</name>
<ExtendedData>
	<Data name="PostalCode">
		<value>127370</value>
	</Data>
	<Data name="Friendliness">
		<value>2</value>
	</Data>
</ExtendedData>
<Point>
<coordinates>103.765894086025,1.30298922944535</coordinates>
</Point>
</Placemark>
<Placemark>
<name>West Coast Plaza</name>
<ExtendedData>
	<Data name="PostalCode">
		<value>127371</value>
	</Data>
	<Data name="Friendliness">
		<value>3</value>
	</Data>
</ExtendedData>
<Point>
<coordinates>103.766266085267,1.30381844731521</coordinates>
</Point>
</Placemark>
<Placemark>
<name>Ayer Rajah Food Centre</name>
<ExtendedData>
	<Data name="PostalCode">
		<value>120503</value>
	</Data>
	<Data name="Friendliness">
		<value>1</value>
	</Data>
</ExtendedData>
<Point>
<coordinates>103.759751080225,1.31180342296283</coordinates>
</Point>
</Placemark>
<Placemark>
<name>Tanglin Secondary School</name>
<ExtendedData>
	<Data name="PostalCode">
		<value>127391</value>
	</Data>
	<Data name="Friendliness">
		<value>2</value>
	</Data>
</ExtendedData>
<Point>
<coordinates>103.758481167091,1.30998802817696</coordinates>
</Point>
</Placemark>
<Placemark>
<name>Clementi Woods Secondary School</name>
<ExtendedData>
	<Data name="PostalCode">
		<value>127443</value>
	</Data>
	<Data name="Friendliness">
		<value>1</value>
	</Data>
</ExtendedData>
<Point>
<coordinates>103.765118299205,1.30611661713958</coordinates>
</Point>
</Placemark>
<Placemark>
<name>Jamiyah Nursing Home</name>
<ExtendedData>
	<Data name="PostalCode">
		<value>127444</value>
	</Data>
	<Data name="Friendliness">
		<value>2</value>
	</Data>
</ExtendedData>
<Point>
<coordinates>103.759436461624,1.31094366827378</coordinates>
</Point>
</Placemark>
<Placemark>
<name>Monterey Park Condominium</name>
<ExtendedData>
	<Data name="PostalCode">
		<value>127466</value>
	</Data>
	<Data name="Friendliness">
		<value>4</value>
	</Data>
</ExtendedData>
<Point>
<coordinates>103.753485722637,1.31626747696195</coordinates>
</Point>
</Placemark>
<Placemark>
<name>West Bay Condominium</name>
<ExtendedData>
	<Data name="PostalCode">
		<value>128035</value>
	</Data>
	<Data name="Friendliness">
		<value>3</value>
	</Data>
</ExtendedData>
<Point>
<coordinates>103.765772528786,1.29846986792533</coordinates>
</Point>
</Placemark>
<Placemark>
<name>Westcove</name>
<ExtendedData>
	<Data name="PostalCode">
		<value>128041</value>
	</Data>
	<Data name="Friendliness">
		<value>3</value>
	</Data>
</ExtendedData>
<Point>
<coordinates>103.766331361768,1.29752122836472</coordinates>
</Point>
</Placemark>
<Placemark>
<name>Blue Horizon</name>
<ExtendedData>
	<Data name="PostalCode">
		<value>128045</value>
	</Data>
	<Data name="Friendliness">
		<value>2</value>
	</Data>
</ExtendedData>
<Point>
<coordinates>103.765431860526,1.2968426579745</coordinates>
</Point>
</Placemark>
<Placemark>
<name>QIFA Primary School</name>
<ExtendedData>
	<Data name="PostalCode">
		<value>128104</value>
	</Data>
	<Data name="Friendliness">
		<value>2</value>
	</Data>
</ExtendedData>
<Point>
<coordinates>103.757029715237,1.3126218743886</coordinates>
</Point>
</Placemark>
<Placemark>
<name>Clementi MRT Station EW23</name>
<ExtendedData>
	<Data name="PostalCode">
		<value>129580</value>
	</Data>
	<Data name="Friendliness">
		<value>3</value>
	</Data>
</ExtendedData>
<Point>
<coordinates>103.765156362643,1.3152501102811</coordinates>
</Point>
</Placemark>
<Placemark>
<name>Cityvibe</name>
<ExtendedData>
	<Data name="PostalCode">
		<value>129581</value>
	</Data>
	<Data name="Friendliness">
		<value>2</value>
	</Data>
</ExtendedData>
<Point>
<coordinates>103.765132929017,1.31426947061659</coordinates>
</Point>
</Placemark>
<Placemark>
<name>Singapore Buddhist Youth Mission</name>
<ExtendedData>
	<Data name="PostalCode">
		<value>129583</value>
	</Data>
	<Data name="Friendliness">
		<value>1</value>
	</Data>
</ExtendedData>
<Point>
<coordinates>103.761867950532,1.32300910142157</coordinates>
</Point>
</Placemark>
<Placemark>
<name>The Clementi Mall</name>
<ExtendedData>
	<Data name="PostalCode">
		<value>129588</value>
	</Data>
	<Data name="Friendliness">
		<value>3</value>
	</Data>
</ExtendedData>
<Point>
<coordinates>103.764569879622,1.31549708676058</coordinates>
</Point>
</Placemark>
<Placemark>
<name>West Coast Community Centre CC</name>
<ExtendedData>
	<Data name="PostalCode">
		<value>129605</value>
	</Data>
	<Data name="Friendliness">
		<value>2</value>
	</Data>
</ExtendedData>
<Point>
<coordinates>103.764983911172,1.30280556458001</coordinates>
</Point>
</Placemark>
<Placemark>
<name>Orange Valley Nursing Home Clementi</name>
<ExtendedData>
	<Data name="PostalCode">
		<value>129881</value>
	</Data>
	<Data name="Friendliness">
		<value>2</value>
	</Data>
</ExtendedData>
<Point>
<coordinates>103.768880839831,1.31882482203406</coordinates>
</Point>
</Placemark>
<Placemark>
<name>Clementi Primary School</name>
<ExtendedData>
	<Data name="PostalCode">
		<value>129903</value>
	</Data>
	<Data name="Friendliness">
		<value>2</value>
	</Data>
</ExtendedData>
<Point>
<coordinates>103.76314416899,1.31506252523</coordinates>
</Point>
</Placemark>
<Placemark>
<name>Clementi Town Secondary School</name>
<ExtendedData>
	<Data name="PostalCode">
		<value>129904</value>
	</Data>
	<Data name="Friendliness">
		<value>1</value>
	</Data>
</ExtendedData>
<Point>
<coordinates>103.762020273772,1.3155394619751</coordinates>
</Point>
</Placemark>
<Placemark>
<name>Clementi Sports Hall</name>
<ExtendedData>
	<Data name="PostalCode">
		<value>129907</value>
	</Data>
	<Data name="Friendliness">
		<value>3</value>
	</Data>
</ExtendedData>
<Point>
<coordinates>103.764861081426,1.31101531434547</coordinates>
</Point>
</Placemark>
<Placemark>
<name>Bendemeer Secondary School</name>
<ExtendedData>
	<Data name="PostalCode">
		<value>327919</value>
	</Data>
	<Data name="Friendliness">
		<value>3</value>
	</Data>
</ExtendedData>
<Point>
<coordinates>103.860633924025,1.32425903186393</coordinates>
</Point>
</Placemark>
<Placemark>
<name>Tanglin Shopping Centre Retail</name>
<ExtendedData>
	<Data name="PostalCode">
		<value>247909</value>
	</Data>
	<Data name="Friendliness">
		<value>1</value>
	</Data>
</ExtendedData>
<Point>
<coordinates>103.827036189193,1.30637307991158</coordinates>
</Point>
</Placemark>
<Placemark>
<name>Saint Regis Hotel  Residences Singapore</name>
<ExtendedData>
	<Data name="PostalCode">
		<value>247911</value>
	</Data>
	<Data name="Friendliness">
		<value>4</value>
	</Data>
</ExtendedData>
<Point>
<coordinates>103.826075272109,1.30569633211589</coordinates>
</Point>
</Placemark>
<Placemark>
<name>Tanglin Place</name>
<ExtendedData>
	<Data name="PostalCode">
		<value>247918</value>
	</Data>
	<Data name="Friendliness">
		<value>2</value>
	</Data>
</ExtendedData>
<Point>
<coordinates>103.825098344364,1.30528682820445</coordinates>
</Point>
</Placemark>
<Placemark>
<name>Tanglin Mall</name>
<ExtendedData>
	<Data name="PostalCode">
		<value>247933</value>
	</Data>
	<Data name="Friendliness">
		<value>2</value>
	</Data>
</ExtendedData>
<Point>
<coordinates>103.823883165563,1.30485375437261</coordinates>
</Point>
</Placemark>
<Placemark>
<name>Grace Assembly of God</name>
<ExtendedData>
	<Data name="PostalCode">
		<value>247960</value>
	</Data>
	<Data name="Friendliness">
		<value>1</value>
	</Data>
</ExtendedData>
<Point>
<coordinates>103.816385591412,1.29430600271119</coordinates>
</Point>
</Placemark>
<Placemark>
<name>Crescent Girls School</name>
<ExtendedData>
	<Data name="PostalCode">
		<value>247961</value>
	</Data>
	<Data name="Friendliness">
		<value>2</value>
	</Data>
</ExtendedData>
<Point>
<coordinates>103.81754413658,1.29331980312051</coordinates>
</Point>
</Placemark>
<Placemark>
<name>Friven and Co  Tanglin</name>
<ExtendedData>
	<Data name="PostalCode">
		<value>247964</value>
	</Data>
	<Data name="Friendliness">
		<value>4</value>
	</Data>
</ExtendedData>
<Point>
<coordinates>103.822978912536,1.30564400279682</coordinates>
</Point>
</Placemark>
<Placemark>
<name>Tanglin Regency</name>
<ExtendedData>
	<Data name="PostalCode">
		<value>247965</value>
	</Data>
	<Data name="Friendliness">
		<value>3</value>
	</Data>
</ExtendedData>
<Point>
<coordinates>103.816015156287,1.29205289283591</coordinates>
</Point>
</Placemark>
<Placemark>
<name>Valley Point Shopping Centre</name>
<ExtendedData>
	<Data name="PostalCode">
		<value>248371</value>
	</Data>
	<Data name="Friendliness">
		<value>3</value>
	</Data>
</ExtendedData>
<Point>
<coordinates>103.82707560885,1.29307258509856</coordinates>
</Point>
</Placemark>
<Placemark>
<name>Four Seasons Hotel</name>
<ExtendedData>
	<Data name="PostalCode">
		<value>248646</value>
	</Data>
	<Data name="Friendliness">
		<value>2</value>
	</Data>
</ExtendedData>
<Point>
<coordinates>103.828652396633,1.30521055512496</coordinates>
</Point>
</Placemark>
<Placemark>
<name>Camden Medical Centre</name>
<ExtendedData>
	<Data name="PostalCode">
		<value>248649</value>
	</Data>
	<Data name="Friendliness">
		<value>4</value>
	</Data>
</ExtendedData>
<Point>
<coordinates>103.823936718969,1.30315166774373</coordinates>
</Point>
</Placemark>
<Placemark>
<name>One Tree Hill</name>
<ExtendedData>
	<Data name="PostalCode">
		<value>248669</value>
	</Data>
	<Data name="Friendliness">
		<value>4</value>
	</Data>
</ExtendedData>
<Point>
<coordinates>103.824652808202,1.30075997276692</coordinates>
</Point>
</Placemark>
<Placemark>
<name>Jim Thompson Thai Restaurant and Wine Bar</name>
<ExtendedData>
	<Data name="PostalCode">
		<value>248817</value>
	</Data>
	<Data name="Friendliness">
		<value>3</value>
	</Data>
</ExtendedData>
<Point>
<coordinates>103.815575322673,1.30543006351363</coordinates>
</Point>
</Placemark>
<Placemark>
<name>Saint Georges Church</name>
<ExtendedData>
	<Data name="PostalCode">
		<value>248818</value>
	</Data>
	<Data name="Friendliness">
		<value>4</value>
	</Data>
</ExtendedData>
<Point>
<coordinates>103.815134198534,1.30475147117636</coordinates>
</Point>
</Placemark>
<Placemark>
<name>NYU Tisch School of The Arts Asia</name>
<ExtendedData>
	<Data name="PostalCode">
		<value>248923</value>
	</Data>
	<Data name="Friendliness">
		<value>2</value>
	</Data>
</ExtendedData>
<Point>
<coordinates>103.814917592784,1.29574055553239</coordinates>
</Point>
</Placemark>
<Placemark>
<name>Kay Poh Road Baptist Church</name>
<ExtendedData>
	<Data name="PostalCode">
		<value>248963</value>
	</Data>
	<Data name="Friendliness">
		<value>2</value>
	</Data>
</ExtendedData>
<Point>
<coordinates>103.82918559152,1.2964803175519</coordinates>
</Point>
</Placemark>
<Placemark>
<name>OG Orchard Point</name>
<ExtendedData>
	<Data name="PostalCode">
		<value>238842</value>
	</Data>
	<Data name="Friendliness">
		<value>2</value>
	</Data>
</ExtendedData>
<Point>
<coordinates>103.840552855289,1.30136967210117</coordinates>
</Point>
</Placemark>
<Placemark>
<name>The CentrePoint</name>
<ExtendedData>
	<Data name="PostalCode">
		<value>238843</value>
	</Data>
	<Data name="Friendliness">
		<value>2</value>
	</Data>
</ExtendedData>
<Point>
<coordinates>103.839812888335,1.30193063984279</coordinates>
</Point>
</Placemark>
<Placemark>
<name>The Heeren Shops</name>
<ExtendedData>
	<Data name="PostalCode">
		<value>238855</value>
	</Data>
	<Data name="Friendliness">
		<value>2</value>
	</Data>
</ExtendedData>
<Point>
<coordinates>103.837316952425,1.30268536278921</coordinates>
</Point>
</Placemark>
<Placemark>
<name>Grand Park Orchard</name>
<ExtendedData>
	<Data name="PostalCode">
		<value>238857</value>
	</Data>
	<Data name="Friendliness">
		<value>2</value>
	</Data>
</ExtendedData>
<Point>
<coordinates>103.836355276722,1.30293828602423</coordinates>
</Point>
</Placemark>
<Placemark>
<name>Paragon</name>
<ExtendedData>
	<Data name="PostalCode">
		<value>238859</value>
	</Data>
	<Data name="Friendliness">
		<value>4</value>
	</Data>
</ExtendedData>
<Point>
<coordinates>103.835859303605,1.30388372126881</coordinates>
</Point>
</Placemark>
<Placemark>
<name>Lucky Plaza Retail</name>
<ExtendedData>
	<Data name="PostalCode">
		<value>238863</value>
	</Data>
	<Data name="Friendliness">
		<value>2</value>
	</Data>
</ExtendedData>
<Point>
<coordinates>103.834016303332,1.30438908510362</coordinates>
</Point>
</Placemark>
<Placemark>
<name>Tangs Plaza</name>
<ExtendedData>
	<Data name="PostalCode">
		<value>238865</value>
	</Data>
	<Data name="Friendliness">
		<value>2</value>
	</Data>
</ExtendedData>
<Point>
<coordinates>103.833066503603,1.30500602745394</coordinates>
</Point>
</Placemark>
<Placemark>
<name>Mandarin Orchard Singapore</name>
<ExtendedData>
	<Data name="PostalCode">
		<value>238867</value>
	</Data>
	<Data name="Friendliness">
		<value>3</value>
	</Data>
</ExtendedData>
<Point>
<coordinates>103.836340629386,1.30206483877721</coordinates>
</Point>
</Placemark>
<Placemark>
<name>Shaw House Retail</name>
<ExtendedData>
	<Data name="PostalCode">
		<value>238868</value>
	</Data>
	<Data name="Friendliness">
		<value>2</value>
	</Data>
</ExtendedData>
<Point>
<coordinates>103.831517943858,1.30586833951518</coordinates>
</Point>
</Placemark>
<Placemark>
<name>Institute of Technical Education West</name>
<ExtendedData>
	<Data name="PostalCode">
		<value>688236</value>
	</Data>
	<Data name="Friendliness">
		<value>3</value>
	</Data>
</ExtendedData>
<Point>
<coordinates>103.751751815114,1.3748544405853</coordinates>
</Point>
</Placemark>
<Placemark>
<name>Teck Ghee Community Centre CC</name>
<ExtendedData>
	<Data name="PostalCode">
		<value>569734</value>
	</Data>
	<Data name="Friendliness">
		<value>2</value>
	</Data>
</ExtendedData>
<Point>
<coordinates>103.853554771546,1.36310576750956</coordinates>
</Point>
</Placemark>
<Placemark>
<name>Pathlight School Campus 1</name>
<ExtendedData>
	<Data name="PostalCode">
		<value>569739</value>
	</Data>
	<Data name="Friendliness">
		<value>3</value>
	</Data>
</ExtendedData>
<Point>
<coordinates>103.854574997993,1.35968915901729</coordinates>
</Point>
</Placemark>
<Placemark>
<name>Ang Mo Kio Thye Hua Kwan Hospital</name>
<ExtendedData>
	<Data name="PostalCode">
		<value>569766</value>
	</Data>
	<Data name="Friendliness">
		<value>3</value>
	</Data>
</ExtendedData>
<Point>
<coordinates>103.84035560791,1.38401979502241</coordinates>
</Point>
</Placemark>
<Placemark>
<name>Chaoyang School</name>
<ExtendedData>
	<Data name="PostalCode">
		<value>569767</value>
	</Data>
	<Data name="Friendliness">
		<value>2</value>
	</Data>
</ExtendedData>
<Point>
<coordinates>103.841800958864,1.38328220351521</coordinates>
</Point>
</Placemark>
<Placemark>
<name>Yio Chu Kang Sports and Recreational Centre</name>
<ExtendedData>
	<Data name="PostalCode">
		<value>569770</value>
	</Data>
	<Data name="Friendliness">
		<value>2</value>
	</Data>
</ExtendedData>
<Point>
<coordinates>103.845866277354,1.38223848676351</coordinates>
</Point>
</Placemark>
<Placemark>
<name>Yio Chu Kang Swimming Complex</name>
<ExtendedData>
	<Data name="PostalCode">
		<value>569771</value>
	</Data>
	<Data name="Friendliness">
		<value>3</value>
	</Data>
</ExtendedData>
<Point>
<coordinates>103.847068601939,1.38157957390389</coordinates>
</Point>
</Placemark>
<Placemark>
<name>Yio Chu Kang Stadium</name>
<ExtendedData>
	<Data name="PostalCode">
		<value>569777</value>
	</Data>
	<Data name="Friendliness">
		<value>2</value>
	</Data>
</ExtendedData>
<Point>
<coordinates>103.846355370587,1.38318530546559</coordinates>
</Point>
</Placemark>
<Placemark>
<name>Yio Chu Kang Sports Hall</name>
<ExtendedData>
	<Data name="PostalCode">
		<value>569780</value>
	</Data>
	<Data name="Friendliness">
		<value>3</value>
	</Data>
</ExtendedData>
<Point>
<coordinates>103.84586628382,1.38347116587056</coordinates>
</Point>
</Placemark>
<Placemark>
<name>Ang Mo Kio North Neighbourhood Police Centre</name>
<ExtendedData>
	<Data name="PostalCode">
		<value>569784</value>
	</Data>
	<Data name="Friendliness">
		<value>1</value>
	</Data>
</ExtendedData>
<Point>
<coordinates>103.845094756103,1.38491926396274</coordinates>
</Point>
</Placemark>
<Placemark>
<name>Anderson Primary School</name>
<ExtendedData>
	<Data name="PostalCode">
		<value>569785</value>
	</Data>
	<Data name="Friendliness">
		<value>1</value>
	</Data>
</ExtendedData>
<Point>
<coordinates>103.841238093127,1.38466629775375</coordinates>
</Point>
</Placemark>
<Placemark>
<name>Nuovo</name>
<ExtendedData>
	<Data name="PostalCode">
		<value>569786</value>
	</Data>
	<Data name="Friendliness">
		<value>2</value>
	</Data>
</ExtendedData>
<Point>
<coordinates>103.842409988634,1.3843678235119</coordinates>
</Point>
</Placemark>
<Placemark>
<name>iHUB Building</name>
<ExtendedData>
	<Data name="PostalCode">
		<value>609431</value>
	</Data>
	<Data name="Friendliness">
		<value>1</value>
	</Data>
</ExtendedData>
<Point>
<coordinates>103.741869198637,1.32877338327744</coordinates>
</Point>
</Placemark>
<Placemark>
<name>Safra Country Club Yishun</name>
<ExtendedData>
	<Data name="PostalCode">
		<value>769027</value>
	</Data>
	<Data name="Friendliness">
		<value>2</value>
	</Data>
</ExtendedData>
<Point>
<coordinates>103.840969874189,1.4241555884229</coordinates>
</Point>
</Placemark>
<Placemark>
<name>Yishun Swimming Complex</name>
<ExtendedData>
	<Data name="PostalCode">
		<value>769057</value>
	</Data>
	<Data name="Friendliness">
		<value>3</value>
	</Data>
</ExtendedData>
<Point>
<coordinates>103.834020470498,1.42367830040923</coordinates>
</Point>
</Placemark>
<Placemark>
<name>Sree Maha Mariamman Temple</name>
<ExtendedData>
	<Data name="PostalCode">
		<value>769061</value>
	</Data>
	<Data name="Friendliness">
		<value>1</value>
	</Data>
</ExtendedData>
<Point>
<coordinates>103.830894170647,1.42364328224541</coordinates>
</Point>
</Placemark>
<Placemark>
<name>Khatib MRT Station NS14</name>
<ExtendedData>
	<Data name="PostalCode">
		<value>769092</value>
	</Data>
	<Data name="Friendliness">
		<value>3</value>
	</Data>
</ExtendedData>
<Point>
<coordinates>103.833060717811,1.41758939293207</coordinates>
</Point>
</Placemark>
<Placemark>
<name>Yishun MRT station NS13</name>
<ExtendedData>
	<Data name="PostalCode">
		<value>769093</value>
	</Data>
	<Data name="Friendliness">
		<value>3</value>
	</Data>
</ExtendedData>
<Point>
<coordinates>103.834974197164,1.42891267740156</coordinates>
</Point>
</Placemark>
<Placemark>
<name>Yishun Bus Interchange</name>
<ExtendedData>
	<Data name="PostalCode">
		<value>769095</value>
	</Data>
	<Data name="Friendliness">
		<value>1</value>
	</Data>
</ExtendedData>
<Point>
<coordinates>103.836361988016,1.42789685382881</coordinates>
</Point>
</Placemark>
<Placemark>
<name>Dou Tian Gong Temple</name>
<ExtendedData>
	<Data name="PostalCode">
		<value>648370</value>
	</Data>
	<Data name="Friendliness">
		<value>1</value>
	</Data>
</ExtendedData>
<Point>
<coordinates>103.703661415584,1.34703448827762</coordinates>
</Point>
</Placemark>
<Placemark>
<name>Jurong Point</name>
<ExtendedData>
	<Data name="PostalCode">
		<value>648886</value>
	</Data>
	<Data name="Friendliness">
		<value>4</value>
	</Data>
</ExtendedData>
<Point>
<coordinates>103.706684688308,1.33945233668127</coordinates>
</Point>
</Placemark>
<Placemark>
<name>Jurong West Sports Hall</name>
<ExtendedData>
	<Data name="PostalCode">
		<value>648965</value>
	</Data>
	<Data name="Friendliness">
		<value>3</value>
	</Data>
</ExtendedData>
<Point>
<coordinates>103.694120445014,1.33854938444889</coordinates>
</Point>
</Placemark>
<Placemark>
<name>Jin Fu Gong Temple</name>
<ExtendedData>
	<Data name="PostalCode">
		<value>649000</value>
	</Data>
	<Data name="Friendliness">
		<value>3</value>
	</Data>
</ExtendedData>
<Point>
<coordinates>103.690544450101,1.3410393790554</coordinates>
</Point>
</Placemark>
<Placemark>
<name>Juying Secondary School</name>
<ExtendedData>
	<Data name="PostalCode">
		<value>649038</value>
	</Data>
	<Data name="Friendliness">
		<value>3</value>
	</Data>
</ExtendedData>
<Point>
<coordinates>103.687262751336,1.33890239579741</coordinates>
</Point>
</Placemark>
<Placemark>
<name>Orange Valley Nursing Home Simei</name>
<ExtendedData>
	<Data name="PostalCode">
		<value>529898</value>
	</Data>
	<Data name="Friendliness">
		<value>3</value>
	</Data>
</ExtendedData>
<Point>
<coordinates>103.948068193631,1.34071750375207</coordinates>
</Point>
</Placemark>
<Placemark>
<name>ChangiSimei Community Centre CC</name>
<ExtendedData>
	<Data name="PostalCode">
		<value>529915</value>
	</Data>
	<Data name="Friendliness">
		<value>2</value>
	</Data>
</ExtendedData>
<Point>
<coordinates>103.95512988182,1.34477500128288</coordinates>
</Point>
</Placemark>
<Placemark>
<name>Metta School</name>
<ExtendedData>
	<Data name="PostalCode">
		<value>529949</value>
	</Data>
	<Data name="Friendliness">
		<value>3</value>
	</Data>
</ExtendedData>
<Point>
<coordinates>103.957332514648,1.34686563975728</coordinates>
</Point>
</Placemark>
<Placemark>
<name>Simei MRT Station EW3</name>
<ExtendedData>
	<Data name="PostalCode">
		<value>529888</value>
	</Data>
	<Data name="Friendliness">
		<value>3</value>
	</Data>
</ExtendedData>
<Point>
<coordinates>103.953371000563,1.3432037537158</coordinates>
</Point>
</Placemark>
<Placemark>
<name>Moriah BiblePresbyterian Church</name>
<ExtendedData>
	<Data name="PostalCode">
		<value>529974</value>
	</Data>
	<Data name="Friendliness">
		<value>2</value>
	</Data>
</ExtendedData>
<Point>
<coordinates>103.957274753066,1.34342129914016</coordinates>
</Point>
</Placemark>
<Placemark>
<name>Jia Ying Community Services Centre</name>
<ExtendedData>
	<Data name="PostalCode">
		<value>530019</value>
	</Data>
	<Data name="Friendliness">
		<value>1</value>
	</Data>
</ExtendedData>
<Point>
<coordinates>103.891816674432,1.36380745825755</coordinates>
</Point>
</Placemark>
<Placemark>
<name>Hougang 105 Hainanese Village Centre</name>
<ExtendedData>
	<Data name="PostalCode">
		<value>530105</value>
	</Data>
	<Data name="Friendliness">
		<value>4</value>
	</Data>
</ExtendedData>
<Point>
<coordinates>103.890093830225,1.3538476177784</coordinates>
</Point>
</Placemark>
<Placemark>
<name>Aljunied Community Centre CC</name>
<ExtendedData>
	<Data name="PostalCode">
		<value>530110</value>
	</Data>
	<Data name="Friendliness">
		<value>2</value>
	</Data>
</ExtendedData>
<Point>
<coordinates>103.889446054495,1.35462731406816</coordinates>
</Point>
</Placemark>
<Placemark>
<name>Paya Lebar Wellness Centre</name>
<ExtendedData>
	<Data name="PostalCode">
		<value>530112</value>
	</Data>
	<Data name="Friendliness">
		<value>1</value>
	</Data>
</ExtendedData>
<Point>
<coordinates>103.88855939346,1.35442831570659</coordinates>
</Point>
</Placemark>
<Placemark>
<name>Singapore Buddhist Welfare Services  National Kidney Foundation Dialysis Centre</name>
<ExtendedData>
	<Data name="PostalCode">
		<value>530114</value>
	</Data>
	<Data name="Friendliness">
		<value>2</value>
	</Data>
</ExtendedData>
<Point>
<coordinates>103.888777241155,1.35287582251281</coordinates>
</Point>
</Placemark>
<Placemark>
<name>Heartland Mall</name>
<ExtendedData>
	<Data name="PostalCode">
		<value>530205</value>
	</Data>
	<Data name="Friendliness">
		<value>2</value>
	</Data>
</ExtendedData>
<Point>
<coordinates>103.885168744972,1.3595448422227</coordinates>
</Point>
</Placemark>
<Placemark>
<name>Paya Lebar Kovan Community Centre CC</name>
<ExtendedData>
	<Data name="PostalCode">
		<value>530207</value>
	</Data>
	<Data name="Friendliness">
		<value>3</value>
	</Data>
</ExtendedData>
<Point>
<coordinates>103.886313206306,1.35759863859392</coordinates>
</Point>
</Placemark>
<Placemark>
<name>Kovan Hougang Market and Food Centre</name>
<ExtendedData>
	<Data name="PostalCode">
		<value>530209</value>
	</Data>
	<Data name="Friendliness">
		<value>4</value>
	</Data>
</ExtendedData>
<Point>
<coordinates>103.885977365348,1.35911980338937</coordinates>
</Point>
</Placemark>
<Placemark>
<name>Punggol Park Community Centre CC</name>
<ExtendedData>
	<Data name="PostalCode">
		<value>530458</value>
	</Data>
	<Data name="Friendliness">
		<value>1</value>
	</Data>
</ExtendedData>
<Point>
<coordinates>103.896252556416,1.37773478319028</coordinates>
</Point>
</Placemark>
<Placemark>
<name>Lau Pa Sat Festival Home</name>
<ExtendedData>
	<Data name="PostalCode">
		<value>48582</value>
	</Data>
	<Data name="Friendliness">
		<value>1</value>
	</Data>
</ExtendedData>
<Point>
<coordinates>103.850414204789,1.280603394758</coordinates>
</Point>
</Placemark>
<Placemark>
<name>One Raffles Quay Retail</name>
<ExtendedData>
	<Data name="PostalCode">
		<value>48583</value>
	</Data>
	<Data name="Friendliness">
		<value>3</value>
	</Data>
</ExtendedData>
<Point>
<coordinates>103.851908299786,1.28115073848996</coordinates>
</Point>
</Placemark>
<Placemark>
<name>One Raffles Place Tower 2</name>
<ExtendedData>
	<Data name="PostalCode">
		<value>48616</value>
	</Data>
	<Data name="Friendliness">
		<value>3</value>
	</Data>
</ExtendedData>
<Point>
<coordinates>103.851062892303,1.28432713805929</coordinates>
</Point>
</Placemark>
<Placemark>
<name>Raffles Place MRT Station EW14NS16</name>
<ExtendedData>
	<Data name="PostalCode">
		<value>48618</value>
	</Data>
	<Data name="Friendliness">
		<value>3</value>
	</Data>
</ExtendedData>
<Point>
<coordinates>103.851462741388,1.28393359453252</coordinates>
</Point>
</Placemark>
<Placemark>
<name>Republic Plaza</name>
<ExtendedData>
	<Data name="PostalCode">
		<value>48619</value>
	</Data>
	<Data name="Friendliness">
		<value>3</value>
	</Data>
</ExtendedData>
<Point>
<coordinates>103.850803914647,1.28317788562991</coordinates>
</Point>
</Placemark>
<Placemark>
<name>Chevron House</name>
<ExtendedData>
	<Data name="PostalCode">
		<value>48622</value>
	</Data>
	<Data name="Friendliness">
		<value>3</value>
	</Data>
</ExtendedData>
<Point>
<coordinates>103.851953688084,1.28419370259644</coordinates>
</Point>
</Placemark>
<Placemark>
<name>Great Eastern Centre Retail</name>
<ExtendedData>
	<Data name="PostalCode">
		<value>48659</value>
	</Data>
	<Data name="Friendliness">
		<value>2</value>
	</Data>
</ExtendedData>
<Point>
<coordinates>103.847653044803,1.28484201178954</coordinates>
</Point>
</Placemark>
<Placemark>
<name>Nankin Row Retail</name>
<ExtendedData>
	<Data name="PostalCode">
		<value>48660</value>
	</Data>
	<Data name="Friendliness">
		<value>3</value>
	</Data>
</ExtendedData>
<Point>
<coordinates>103.84736344738,1.28436832968858</coordinates>
</Point>
</Placemark>
<Placemark>
<name>Market Street Food Centre</name>
<ExtendedData>
	<Data name="PostalCode">
		<value>48940</value>
	</Data>
	<Data name="Friendliness">
		<value>2</value>
	</Data>
</ExtendedData>
<Point>
<coordinates>103.850116120431,1.28423437836054</coordinates>
</Point>
</Placemark>
<Placemark>
<name>55 Market Street</name>
<ExtendedData>
	<Data name="PostalCode">
		<value>48941</value>
	</Data>
	<Data name="Friendliness">
		<value>1</value>
	</Data>
</ExtendedData>
<Point>
<coordinates>103.850485845826,1.28447084017421</coordinates>
</Point>
</Placemark>
<Placemark>
<name>Bank of Singapore Centre</name>
<ExtendedData>
	<Data name="PostalCode">
		<value>48942</value>
	</Data>
	<Data name="Friendliness">
		<value>3</value>
	</Data>
</ExtendedData>
<Point>
<coordinates>103.850618763797,1.28429483630319</coordinates>
</Point>
</Placemark>
<Placemark>
<name>One George Street</name>
<ExtendedData>
	<Data name="PostalCode">
		<value>49145</value>
	</Data>
	<Data name="Friendliness">
		<value>3</value>
	</Data>
</ExtendedData>
<Point>
<coordinates>103.847808643219,1.2856578782567</coordinates>
</Point>
</Placemark>
<Placemark>
<name>The Fullerton Hotel</name>
<ExtendedData>
	<Data name="PostalCode">
		<value>49178</value>
	</Data>
	<Data name="Friendliness">
		<value>2</value>
	</Data>
</ExtendedData>
<Point>
<coordinates>103.852970025111,1.28619356940003</coordinates>
</Point>
</Placemark>
<Placemark>
<name>One Fullerton</name>
<ExtendedData>
	<Data name="PostalCode">
		<value>49213</value>
	</Data>
	<Data name="Friendliness">
		<value>2</value>
	</Data>
</ExtendedData>
<Point>
<coordinates>103.853982106474,1.28562656710926</coordinates>
</Point>
</Placemark>
<Placemark>
<name>Ascott Singapore Raffles Place</name>
<ExtendedData>
	<Data name="PostalCode">
		<value>49247</value>
	</Data>
	<Data name="Friendliness">
		<value>3</value>
	</Data>
</ExtendedData>
<Point>
<coordinates>103.85155670648,1.28207707203756</coordinates>
</Point>
</Placemark>
<Placemark>
<name>Ocean Financial Centre</name>
<ExtendedData>
	<Data name="PostalCode">
		<value>49315</value>
	</Data>
	<Data name="Friendliness">
		<value>2</value>
	</Data>
</ExtendedData>
<Point>
<coordinates>103.85184676827,1.28308133639392</coordinates>
</Point>
</Placemark>
<Placemark>
<name>Fragrance Hotel Waterfront</name>
<ExtendedData>
	<Data name="PostalCode">
		<value>118759</value>
	</Data>
	<Data name="Friendliness">
		<value>2</value>
	</Data>
</ExtendedData>
<Point>
<coordinates>103.768898753401,1.29220943690902</coordinates>
</Point>
</Placemark>
<Placemark>
<name>Fragrance Hotel Ocean View</name>
<ExtendedData>
	<Data name="PostalCode">
		<value>118773</value>
	</Data>
	<Data name="Friendliness">
		<value>1</value>
	</Data>
</ExtendedData>
<Point>
<coordinates>103.76851249027,1.29241519611925</coordinates>
</Point>
</Placemark>
<Placemark>
<name>Pasir Panjang Hill Brethren Church</name>
<ExtendedData>
	<Data name="PostalCode">
		<value>118827</value>
	</Data>
	<Data name="Friendliness">
		<value>2</value>
	</Data>
</ExtendedData>
<Point>
<coordinates>103.785880635267,1.28048124365992</coordinates>
</Point>
</Placemark>
<Placemark>
<name>The Grandhill</name>
<ExtendedData>
	<Data name="PostalCode">
		<value>118860</value>
	</Data>
	<Data name="Friendliness">
		<value>2</value>
	</Data>
</ExtendedData>
<Point>
<coordinates>103.784874257379,1.28164092853647</coordinates>
</Point>
</Placemark>
<Placemark>
<name>National University Hospital NUH</name>
<ExtendedData>
	<Data name="PostalCode">
		<value>119074</value>
	</Data>
	<Data name="Friendliness">
		<value>4</value>
	</Data>
</ExtendedData>
<Point>
<coordinates>103.782914500074,1.29369382242536</coordinates>
</Point>
</Placemark>
<Placemark>
<name>Pasir Panjang MRT Station CC26</name>
<ExtendedData>
	<Data name="PostalCode">
		<value>117424</value>
	</Data>
	<Data name="Friendliness">
		<value>4</value>
	</Data>
</ExtendedData>
<Point>
<coordinates>103.791350069705,1.276100832134</coordinates>
</Point>
</Placemark>
<Placemark>
<name>Mapletree Business City</name>
<ExtendedData>
	<Data name="PostalCode">
		<value>117439</value>
	</Data>
	<Data name="Friendliness">
		<value>5</value>
	</Data>
</ExtendedData>
<Point>
<coordinates>103.799116329338,1.27516338565304</coordinates>
</Point>
</Placemark>
<Placemark>
<name>The Maylea</name>
<ExtendedData>
	<Data name="PostalCode">
		<value>117494</value>
	</Data>
	<Data name="Friendliness">
		<value>3</value>
	</Data>
</ExtendedData>
<Point>
<coordinates>103.785442948857,1.28051011816227</coordinates>
</Point>
</Placemark>
<Placemark>
<name>The Spectrum</name>
<ExtendedData>
	<Data name="PostalCode">
		<value>117503</value>
	</Data>
	<Data name="Friendliness">
		<value>4</value>
	</Data>
</ExtendedData>
<Point>
<coordinates>103.768859778059,1.2913973321595</coordinates>
</Point>
</Placemark>
<Placemark>
<name>Singapore National Wind Tunnel Facility</name>
<ExtendedData>
	<Data name="PostalCode">
		<value>117508</value>
	</Data>
	<Data name="Friendliness">
		<value>3</value>
	</Data>
</ExtendedData>
<Point>
<coordinates>103.775313420633,1.30104423026368</coordinates>
</Point>
</Placemark>
<Placemark>
<name>National University of Singapore NUS  Centre for English Language Communication</name>
<ExtendedData>
	<Data name="PostalCode">
		<value>117511</value>
	</Data>
	<Data name="Friendliness">
		<value>3</value>
	</Data>
</ExtendedData>
<Point>
<coordinates>103.771385149021,1.29700591283545</coordinates>
</Point>
</Placemark>
<Placemark>
<name>The Galen</name>
<ExtendedData>
	<Data name="PostalCode">
		<value>117525</value>
	</Data>
	<Data name="Friendliness">
		<value>2</value>
	</Data>
</ExtendedData>
<Point>
<coordinates>103.784087010637,1.28655267482152</coordinates>
</Point>
</Placemark>
<Placemark>
<name>The Capricorn</name>
<ExtendedData>
	<Data name="PostalCode">
		<value>117528</value>
	</Data>
	<Data name="Friendliness">
		<value>3</value>
	</Data>
</ExtendedData>
<Point>
<coordinates>103.778529187988,1.28937892765612</coordinates>
</Point>
</Placemark>
<Placemark>
<name>National University of Singapore NUS  School of Design and Environment</name>
<ExtendedData>
	<Data name="PostalCode">
		<value>117566</value>
	</Data>
	<Data name="Friendliness">
		<value>2</value>
	</Data>
</ExtendedData>
<Point>
<coordinates>103.770912043079,1.29720418571997</coordinates>
</Point>
</Placemark>
<Placemark>
<name>National University of Singapore NUS  Faculty of Engineering Block E4A</name>
<ExtendedData>
	<Data name="PostalCode">
		<value>117582</value>
	</Data>
	<Data name="Friendliness">
		<value>2</value>
	</Data>
</ExtendedData>
<Point>
<coordinates>103.772610956833,1.29879429059031</coordinates>
</Point>
</Placemark>
<Placemark>
<name>The Aries</name>
<ExtendedData>
	<Data name="PostalCode">
		<value>117586</value>
	</Data>
	<Data name="Friendliness">
		<value>3</value>
	</Data>
</ExtendedData>
<Point>
<coordinates>103.783134857612,1.28700710837793</coordinates>
</Point>
</Placemark>
<Placemark>
<name>The Gemini</name>
<ExtendedData>
	<Data name="PostalCode">
		<value>117610</value>
	</Data>
	<Data name="Friendliness">
		<value>3</value>
	</Data>
</ExtendedData>
<Point>
<coordinates>103.782865129374,1.28869632846087</coordinates>
</Point>
</Placemark>
<Placemark>
<name>The Alpha</name>
<ExtendedData>
	<Data name="PostalCode">
		<value>117684</value>
	</Data>
	<Data name="Friendliness">
		<value>3</value>
	</Data>
</ExtendedData>
<Point>
<coordinates>103.779605954276,1.28810022459132</coordinates>
</Point>
</Placemark>
<Placemark>
<name>National Community Leadership Institute</name>
<ExtendedData>
	<Data name="PostalCode">
		<value>118176</value>
	</Data>
	<Data name="Friendliness">
		<value>3</value>
	</Data>
</ExtendedData>
<Point>
<coordinates>103.789137339844,1.28242856395998</coordinates>
</Point>
</Placemark>
<Placemark>
<name>The Beacon</name>
<ExtendedData>
	<Data name="PostalCode">
		<value>89775</value>
	</Data>
	<Data name="Friendliness">
		<value>2</value>
	</Data>
</ExtendedData>
<Point>
<coordinates>103.840477236453,1.27591206329969</coordinates>
</Point>
</Placemark>
<Placemark>
<name>New Majestic Hotel</name>
<ExtendedData>
	<Data name="PostalCode">
		<value>89845</value>
	</Data>
	<Data name="Friendliness">
		<value>1</value>
	</Data>
</ExtendedData>
<Point>
<coordinates>103.840412383836,1.2792527044246</coordinates>
</Point>
</Placemark>
<Placemark>
<name>THK Seniors Activity Centre</name>
<ExtendedData>
	<Data name="PostalCode">
		<value>90003</value>
	</Data>
	<Data name="Friendliness">
		<value>1</value>
	</Data>
</ExtendedData>
<Point>
<coordinates>103.817519319185,1.27866249927924</coordinates>
</Point>
</Placemark>
<Placemark>
<name>Telok Blangah Cresent Block 11 Market and Food Centre</name>
<ExtendedData>
	<Data name="PostalCode">
		<value>90011</value>
	</Data>
	<Data name="Friendliness">
		<value>3</value>
	</Data>
</ExtendedData>
<Point>
<coordinates>103.818641376147,1.27736723022193</coordinates>
</Point>
</Placemark>
<Placemark>
<name>Equarius Hotel  RWS</name>
<ExtendedData>
	<Data name="PostalCode">
		<value>98133</value>
	</Data>
	<Data name="Friendliness">
		<value>4</value>
	</Data>
</ExtendedData>
<Point>
<coordinates>103.816927885728,1.25752411149596</coordinates>
</Point>
</Placemark>
<Placemark>
<name>ESPA  RWS</name>
<ExtendedData>
	<Data name="PostalCode">
		<value>98134</value>
	</Data>
	<Data name="Friendliness">
		<value>3</value>
	</Data>
</ExtendedData>
<Point>
<coordinates>103.816207825383,1.25845871567761</coordinates>
</Point>
</Placemark>
<Placemark>
<name>Beach Villas  RWS</name>
<ExtendedData>
	<Data name="PostalCode">
		<value>98135</value>
	</Data>
	<Data name="Friendliness">
		<value>1</value>
	</Data>
</ExtendedData>
<Point>
<coordinates>103.816739263828,1.25933189083036</coordinates>
</Point>
</Placemark>
<Placemark>
<name>SEA Aquarium  RWS</name>
<ExtendedData>
	<Data name="PostalCode">
		<value>98136</value>
	</Data>
	<Data name="Friendliness">
		<value>4</value>
	</Data>
</ExtendedData>
<Point>
<coordinates>103.81770085744,1.25852756718937</coordinates>
</Point>
</Placemark>
<Placemark>
<name>Maritime Experiential Museum  RWS</name>
<ExtendedData>
	<Data name="PostalCode">
		<value>98137</value>
	</Data>
	<Data name="Friendliness">
		<value>4</value>
	</Data>
</ExtendedData>
<Point>
<coordinates>103.820230533852,1.25866707228957</coordinates>
</Point>
</Placemark>
<Placemark>
<name>Hard Rock Hotel  RWS</name>
<ExtendedData>
	<Data name="PostalCode">
		<value>98139</value>
	</Data>
	<Data name="Friendliness">
		<value>4</value>
	</Data>
</ExtendedData>
<Point>
<coordinates>103.81926534281,1.25703472625563</coordinates>
</Point>
</Placemark>
<Placemark>
<name>Universal Studio Singapore  Hollywood</name>
<ExtendedData>
	<Data name="PostalCode">
		<value>98140</value>
	</Data>
	<Data name="Friendliness">
		<value>4</value>
	</Data>
</ExtendedData>
<Point>
<coordinates>103.823197294776,1.25570942648287</coordinates>
</Point>
</Placemark>
<Placemark>
<name>WaterFront Station  Sentosa</name>
<ExtendedData>
	<Data name="PostalCode">
		<value>98141</value>
	</Data>
	<Data name="Friendliness">
		<value>3</value>
	</Data>
</ExtendedData>
<Point>
<coordinates>103.820949360531,1.25553234386213</coordinates>
</Point>
</Placemark>
<Placemark>
<name>Port of Lost Wonder  Sentosa</name>
<ExtendedData>
	<Data name="PostalCode">
		<value>98233</value>
	</Data>
	<Data name="Friendliness">
		<value>4</value>
	</Data>
</ExtendedData>
<Point>
<coordinates>103.819973436567,1.25012800957857</coordinates>
</Point>
</Placemark>
<Placemark>
<name>Sentosa Boardwalk</name>
<ExtendedData>
	<Data name="PostalCode">
		<value>98268</value>
	</Data>
	<Data name="Friendliness">
		<value>5</value>
	</Data>
</ExtendedData>
<Point>
<coordinates>103.826512410624,1.25334846283912</coordinates>
</Point>
</Placemark>
<Placemark>
<name>Hotel Michael  RWS</name>
<ExtendedData>
	<Data name="PostalCode">
		<value>98269</value>
	</Data>
	<Data name="Friendliness">
		<value>3</value>
	</Data>
</ExtendedData>
<Point>
<coordinates>103.820468203493,1.25531987903237</coordinates>
</Point>
</Placemark>